[
  {
    "CountryCode": "SP",
    "Country": "Spain",
    "Coordinates": {
      "Latitude": 43.3669,
      "Longitude": -8.4192,
      "Elevation": 58
    },
    "WarmingAnomaly": 1.6034845679012317,
    "HeatingScore": 8,
    "Id": "3c3abf07-2581-4b36-b8c7-e0b7c7e5bf28",
    "Name": "A Coruna"
  },
  {
    "CountryCode": "GL",
    "Country": "Greenland [Denmark]",
    "Coordinates": {
      "Latitude": 68.7,
      "Longitude": -52.85,
      "Elevation": 41
    },
    "WarmingAnomaly": 0.83873263888889,
    "HeatingScore": 2,
    "Id": "cd20d855-ce58-4e7b-987b-52a7cf7379ef",
    "Name": "Aasiaat Egedesminde"
  },
  {
    "CountryCode": "CH",
    "Country": "China",
    "Coordinates": {
      "Latitude": 44.017,
      "Longitude": 114.95,
      "Elevation": 1128
    },
    "WarmingAnomaly": 1.7637738095238098,
    "HeatingScore": 8,
    "Id": "5c99d427-970e-44e8-b211-b6ea5c7211e7",
    "Name": "Abag Qi"
  },
  {
    "CountryCode": "JA",
    "Country": "Japan",
    "Coordinates": {
      "Latitude": 44.017,
      "Longitude": 144.283,
      "Elevation": 43
    },
    "WarmingAnomaly": 1.1693619402985078,
    "HeatingScore": 4,
    "Id": "51ae85dc-589d-4912-bfc2-3cf91e788ee8",
    "Name": "Abashiri"
  },
  {
    "CountryCode": "FR",
    "Country": "France",
    "Coordinates": {
      "Latitude": 50.143,
      "Longitude": 1.832,
      "Elevation": 67.1
    },
    "WarmingAnomaly": 1.2444220430107507,
    "HeatingScore": 5,
    "Id": "a5c4c92c-2102-4dea-9df8-12044c6ed17f",
    "Name": "Abbeville"
  },
  {
    "CountryCode": "UK",
    "Country": "United Kingdom",
    "Coordinates": {
      "Latitude": 52.133,
      "Longitude": -4.567,
      "Elevation": 134
    },
    "WarmingAnomaly": 0.8088119658119659,
    "HeatingScore": 2,
    "Id": "c18f1d7f-ef3f-43f4-bbc1-08a7ef589326",
    "Name": "Aberporth"
  },
  {
    "CountryCode": "IV",
    "Country": "Cote D\u0027Ivoire",
    "Coordinates": {
      "Latitude": 5.25,
      "Longitude": -3.93,
      "Elevation": 7
    },
    "Id": "963f7fb3-4902-456e-a33e-af6061e1d01a",
    "Name": "Abidjan"
  },
  {
    "CountryCode": "US",
    "Country": "United States of America",
    "Coordinates": {
      "Latitude": 32.4106,
      "Longitude": -99.6822,
      "Elevation": 545.6
    },
    "WarmingAnomaly": 0.7860324074074008,
    "HeatingScore": 2,
    "Id": "689cf8fe-f224-4edc-aea2-d17b8831d149",
    "Name": "Abilene Rgnl Ap"
  },
  {
    "CountryCode": "SW",
    "Country": "Sweden",
    "Coordinates": {
      "Latitude": 68.36,
      "Longitude": 18.82,
      "Elevation": 388
    },
    "WarmingAnomaly": 1.4333300653594774,
    "HeatingScore": 6,
    "Id": "5052c6fe-6c08-4b6e-8675-a3a7b5496832",
    "Name": "Abisko"
  },
  {
    "CountryCode": "NO",
    "Country": "Norway",
    "Coordinates": {
      "Latitude": 60.9181,
      "Longitude": 9.2903,
      "Elevation": 639
    },
    "WarmingAnomaly": 1.1973923611111106,
    "HeatingScore": 5,
    "Id": "4c76b07f-95d7-4726-af29-08feafaa6b02",
    "Name": "Abjorsbraten"
  },
  {
    "CountryCode": "AE",
    "Country": "United Arab Emirates",
    "Coordinates": {
      "Latitude": 24.433,
      "Longitude": 54.651,
      "Elevation": 26.8
    },
    "Id": "b6b60769-823d-468a-9490-2aff520c4589",
    "Name": "Abu Dhabi Intl"
  },
  {
    "CountryCode": "ES",
    "Country": "El Salvador",
    "Coordinates": {
      "Latitude": 13.567,
      "Longitude": -89.833,
      "Elevation": 15
    },
    "Id": "858fb830-e932-43b7-9e30-58c95401151e",
    "Name": "Acajutla"
  },
  {
    "CountryCode": "RS",
    "Country": "Russia",
    "Coordinates": {
      "Latitude": 56.28,
      "Longitude": 90.5,
      "Elevation": 265
    },
    "WarmingAnomaly": 2.0915524691358023,
    "HeatingScore": 9,
    "Id": "e6d56df5-7473-40c9-92cc-1de07c24bc9c",
    "Name": "Achinsk"
  },
  {
    "CountryCode": "ET",
    "Country": "Ethiopia",
    "Coordinates": {
      "Latitude": 9.033,
      "Longitude": 38.75,
      "Elevation": 2354
    },
    "Id": "fbd56343-deba-408e-94e6-bbfd0ca1fc52",
    "Name": "Addis Ababa Bole"
  },
  {
    "CountryCode": "AS",
    "Country": "Australia",
    "Coordinates": {
      "Latitude": -34.92,
      "Longitude": 138.62,
      "Elevation": 48
    },
    "WarmingAnomaly": 0.7858859712486819,
    "HeatingScore": 2,
    "Id": "70a07bb0-2220-402b-be83-f2c35edfdd12",
    "Name": "Adelaide"
  },
  {
    "CountryCode": "TU",
    "Country": "Turkey",
    "Coordinates": {
      "Latitude": 38.726,
      "Longitude": 30.601,
      "Elevation": 1008.9
    },
    "WarmingAnomaly": 0.7357289972899732,
    "HeatingScore": 1,
    "Id": "96e8d011-6739-4d32-b117-42bce7b55b11",
    "Name": "Afyon"
  },
  {
    "CountryCode": "MP",
    "Country": "Mauritius",
    "Coordinates": {
      "Latitude": -10.433,
      "Longitude": 56.75,
      "Elevation": 3
    },
    "WarmingAnomaly": 0.826605902777775,
    "HeatingScore": 2,
    "Id": "ac472bf2-fb33-4251-a95d-93f1934b41f0",
    "Name": "Agalega"
  },
  {
    "CountryCode": "CA",
    "Country": "Canada",
    "Coordinates": {
      "Latitude": 49.25,
      "Longitude": -121.7667,
      "Elevation": 15
    },
    "WarmingAnomaly": 0.5822247474747488,
    "HeatingScore": 0,
    "Id": "661198c6-e451-4729-bfc6-728f0efa2b37",
    "Name": "Agassiz Cda"
  },
  {
    "CountryCode": "RS",
    "Country": "Russia",
    "Coordinates": {
      "Latitude": 66.8797,
      "Longitude": 93.47,
      "Elevation": 277
    },
    "WarmingAnomaly": 1.0960628654970748,
    "HeatingScore": 4,
    "Id": "bc209da8-4041-4e31-97cd-fbf8b0d726ba",
    "Name": "Agata"
  },
  {
    "CountryCode": "RS",
    "Country": "Russia",
    "Coordinates": {
      "Latitude": 51.1,
      "Longitude": 114.52,
      "Elevation": 680
    },
    "WarmingAnomaly": 1.2463011695906432,
    "HeatingScore": 5,
    "Id": "6cc657e3-ef08-431b-9ac7-15335f3e362c",
    "Name": "Aginskoe"
  },
  {
    "CountryCode": "IN",
    "Country": "India",
    "Coordinates": {
      "Latitude": 23.067,
      "Longitude": 72.633,
      "Elevation": 55
    },
    "WarmingAnomaly": 0.6329974747474694,
    "HeatingScore": 1,
    "Id": "3a08f270-8f5a-4b76-82ab-5b2b96aafe88",
    "Name": "Ahmadabad"
  },
  {
    "CountryCode": "FI",
    "Country": "Finland",
    "Coordinates": {
      "Latitude": 62.5344,
      "Longitude": 24.2206,
      "Elevation": 157
    },
    "WarmingAnomaly": 1.4761496415770607,
    "HeatingScore": 7,
    "Id": "afdda0cc-bdec-4e9e-bac8-87a618e734bc",
    "Name": "Ahtari Myllymaki"
  },
  {
    "CountryCode": "RS",
    "Country": "Russia",
    "Coordinates": {
      "Latitude": 56.45,
      "Longitude": 138.15,
      "Elevation": 6
    },
    "WarmingAnomaly": 1.21585401891253,
    "HeatingScore": 5,
    "Id": "9a78cb9c-0927-4b94-a1a6-83115cb9dc6d",
    "Name": "Ajan"
  },
  {
    "CountryCode": "RS",
    "Country": "Russia",
    "Coordinates": {
      "Latitude": 51,
      "Longitude": 55.6,
      "Elevation": 143
    },
    "WarmingAnomaly": 1.1456666666666688,
    "HeatingScore": 4,
    "Id": "11f2794f-bccc-4253-8339-405191e8744b",
    "Name": "Ak Bulak"
  },
  {
    "CountryCode": "RS",
    "Country": "Russia",
    "Coordinates": {
      "Latitude": 41.47,
      "Longitude": 47.7294,
      "Elevation": 1047
    },
    "WarmingAnomaly": 1.1830507246376811,
    "HeatingScore": 4,
    "Id": "a93c4dee-f165-48fa-a60d-0feda8918897",
    "Name": "Akhty"
  },
  {
    "CountryCode": "JA",
    "Country": "Japan",
    "Coordinates": {
      "Latitude": 39.717,
      "Longitude": 140.1,
      "Elevation": 7
    },
    "WarmingAnomaly": 1.5428750000000004,
    "HeatingScore": 7,
    "Id": "51a5f8a4-024b-49de-97e9-4b58521ad981",
    "Name": "Akita"
  },
  {
    "CountryCode": "MR",
    "Country": "Mauritania",
    "Coordinates": {
      "Latitude": 19.75,
      "Longitude": -14.38,
      "Elevation": 123
    },
    "Id": "4254773b-8151-470d-b8ff-77cc555f931a",
    "Name": "Akjoujt"
  },
  {
    "CountryCode": "IN",
    "Country": "India",
    "Coordinates": {
      "Latitude": 20.7,
      "Longitude": 77.033,
      "Elevation": 282
    },
    "WarmingAnomaly": 0.8685707070707203,
    "HeatingScore": 2,
    "Id": "e023c79f-aabd-49b5-99e0-e9f86b1fa19c",
    "Name": "Akola"
  },
  {
    "CountryCode": "US",
    "Country": "United States of America",
    "Coordinates": {
      "Latitude": 40.1667,
      "Longitude": -103.2167,
      "Elevation": 1421.3
    },
    "WarmingAnomaly": 0.8652865497076032,
    "HeatingScore": 2,
    "Id": "77ffb49f-35c2-4acd-976b-eb25c337fb52",
    "Name": "Akron Washington Co Ap"
  },
  {
    "CountryCode": "RS",
    "Country": "Russia",
    "Coordinates": {
      "Latitude": 54,
      "Longitude": 54.2,
      "Elevation": 348
    },
    "WarmingAnomaly": 1.5696317829457374,
    "HeatingScore": 7,
    "Id": "90c3a374-c77c-4065-9008-c44e20180060",
    "Name": "Aksakovo"
  },
  {
    "CountryCode": "KZ",
    "Country": "Kazakhstan",
    "Coordinates": {
      "Latitude": 50.2831,
      "Longitude": 57.15,
      "Elevation": 219
    },
    "WarmingAnomaly": 1.6699166666666656,
    "HeatingScore": 8,
    "Id": "ac3487ec-2a65-4557-8fb1-f112198dc186",
    "Name": "Aktobe"
  },
  {
    "CountryCode": "IC",
    "Country": "Iceland",
    "Coordinates": {
      "Latitude": 65.68,
      "Longitude": -18.0794,
      "Elevation": 27
    },
    "WarmingAnomaly": 1.1586740196078424,
    "HeatingScore": 4,
    "Id": "9a9a3c6d-3839-40b2-8a59-c8c2e656ddb3",
    "Name": "Akureyri"
  },
  {
    "CountryCode": "AE",
    "Country": "United Arab Emirates",
    "Coordinates": {
      "Latitude": 24.262,
      "Longitude": 55.609,
      "Elevation": 264.9
    },
    "Id": "a8cf5f60-679b-4ab9-9421-e2ef416a01a3",
    "Name": "Al Ain Intl"
  },
  {
    "CountryCode": "SA",
    "Country": "Saudi Arabia",
    "Coordinates": {
      "Latitude": 24.55,
      "Longitude": 39.7,
      "Elevation": 636
    },
    "Id": "3f29b6fe-9bdc-485a-869f-69a33fa6bf29",
    "Name": "Al Madinah"
  },
  {
    "CountryCode": "US",
    "Country": "United States of America",
    "Coordinates": {
      "Latitude": 37.4389,
      "Longitude": -105.8614,
      "Elevation": 2296.1
    },
    "WarmingAnomaly": 1.2024444444444455,
    "HeatingScore": 5,
    "Id": "bfe35014-a706-461b-a00c-b191f0a4cd1e",
    "Name": "Alamosa San Luis Ap"
  },
  {
    "CountryCode": "SP",
    "Country": "Spain",
    "Coordinates": {
      "Latitude": 38.9519,
      "Longitude": -1.8631,
      "Elevation": 704
    },
    "WarmingAnomaly": 1.3181660206718337,
    "HeatingScore": 5,
    "Id": "b82ff48b-353f-498a-b9d5-2c2fdc34a60f",
    "Name": "Albacete Los Llanos"
  },
  {
    "CountryCode": "AS",
    "Country": "Australia",
    "Coordinates": {
      "Latitude": -34.94,
      "Longitude": 117.82,
      "Elevation": 68
    },
    "WarmingAnomaly": 0.6964282567120517,
    "HeatingScore": 1,
    "Id": "e491279a-781c-4eb0-8ccf-d49f3d9e2d5a",
    "Name": "Albany"
  },
  {
    "CountryCode": "US",
    "Country": "United States of America",
    "Coordinates": {
      "Latitude": 31.5339,
      "Longitude": -84.1489,
      "Elevation": 54.9
    },
    "WarmingAnomaly": 0.14630876068376608,
    "HeatingScore": 0,
    "Id": "73fdc23f-f8c5-4906-9527-3f67d7c17578",
    "Name": "Albany 3 Se"
  },
  {
    "CountryCode": "US",
    "Country": "United States of America",
    "Coordinates": {
      "Latitude": 42.7431,
      "Longitude": -73.8092,
      "Elevation": 95.1
    },
    "WarmingAnomaly": 1.5366567732115666,
    "HeatingScore": 7,
    "Id": "912e0f67-5c0c-4adf-94af-5a4829b0c44e",
    "Name": "Albany Ap"
  },
  {
    "CountryCode": "RS",
    "Country": "Russia",
    "Coordinates": {
      "Latitude": 58.6167,
      "Longitude": 125.0331,
      "Elevation": 678
    },
    "WarmingAnomaly": 0.9542129629629601,
    "HeatingScore": 3,
    "Id": "b45eb524-51bd-44d5-97c7-260f2348e751",
    "Name": "Aldan"
  },
  {
    "CountryCode": "UK",
    "Country": "United Kingdom",
    "Coordinates": {
      "Latitude": 54.658,
      "Longitude": -6.216,
      "Elevation": 81.7
    },
    "WarmingAnomaly": 1.2652222222222242,
    "HeatingScore": 5,
    "Id": "7ed1be8d-1c59-42f3-bd52-552beefc4c03",
    "Name": "Aldergrove"
  },
  {
    "CountryCode": "RS",
    "Country": "Russia",
    "Coordinates": {
      "Latitude": 50.15,
      "Longitude": 48.55,
      "Elevation": 23
    },
    "WarmingAnomaly": 1.964527777777775,
    "HeatingScore": 9,
    "Id": "dd4f773e-80ff-4277-9765-8957d72593b9",
    "Name": "Aleksandrov Gaj"
  },
  {
    "CountryCode": "RS",
    "Country": "Russia",
    "Coordinates": {
      "Latitude": 50.9,
      "Longitude": 142.1667,
      "Elevation": 30
    },
    "WarmingAnomaly": 1.3086666666666666,
    "HeatingScore": 5,
    "Id": "6eb0f3f0-188d-47d2-a119-546d1725dbd1",
    "Name": "Aleksandrovsk Sahalinskij"
  },
  {
    "CountryCode": "RS",
    "Country": "Russia",
    "Coordinates": {
      "Latitude": 60.4331,
      "Longitude": 77.8667,
      "Elevation": 47
    },
    "WarmingAnomaly": 1.5139351851851852,
    "HeatingScore": 7,
    "Id": "53e61c28-adb9-4181-8a82-f3c2a1740a9b",
    "Name": "Aleksandrovskoe"
  },
  {
    "CountryCode": "FR",
    "Country": "France",
    "Coordinates": {
      "Latitude": 48.45,
      "Longitude": 0.117,
      "Elevation": 141
    },
    "WarmingAnomaly": 1.412972222222221,
    "HeatingScore": 6,
    "Id": "870312d3-7910-47e9-9f12-0fa1951eb245",
    "Name": "Alencon Valframbert"
  },
  {
    "CountryCode": "SY",
    "Country": "Syria",
    "Coordinates": {
      "Latitude": 36.18,
      "Longitude": 37.22,
      "Elevation": 390
    },
    "Id": "6e5bef00-f19b-4f7d-94b5-f7948ba7269f",
    "Name": "Aleppo"
  },
  {
    "CountryCode": "EG",
    "Country": "Egypt",
    "Coordinates": {
      "Latitude": 31.184,
      "Longitude": 29.949,
      "Elevation": -1.8
    },
    "WarmingAnomaly": 0.36718548387096916,
    "HeatingScore": 0,
    "Id": "e70aba3c-fc59-42d0-acea-5f30a41045b2",
    "Name": "Alexandria Intl"
  },
  {
    "CountryCode": "FS",
    "Country": "French Southern and Antarctic Lands [France]",
    "Coordinates": {
      "Latitude": -46.433,
      "Longitude": 51.85,
      "Elevation": 142
    },
    "Id": "2a16ac07-2a3e-41b1-961f-a9da076d6092",
    "Name": "Alfred Faure Iles Crozet"
  },
  {
    "CountryCode": "AG",
    "Country": "Algeria",
    "Coordinates": {
      "Latitude": 36.7167,
      "Longitude": 3.25,
      "Elevation": 24
    },
    "WarmingAnomaly": 1.2058666666666618,
    "HeatingScore": 5,
    "Id": "a34c9c94-e013-46e1-8fc3-96182dd0a7da",
    "Name": "Alger Dar El Beida"
  },
  {
    "CountryCode": "AS",
    "Country": "Australia",
    "Coordinates": {
      "Latitude": -23.8,
      "Longitude": 133.89,
      "Elevation": 546
    },
    "WarmingAnomaly": 1.2552931462703576,
    "HeatingScore": 5,
    "Id": "fbb67194-9253-4ed2-bd20-f4a0211b264b",
    "Name": "Alice Springs"
  },
  {
    "CountryCode": "US",
    "Country": "United States of America",
    "Coordinates": {
      "Latitude": 31.5358,
      "Longitude": -82.5067,
      "Elevation": 58.8
    },
    "WarmingAnomaly": 0.7990595238095182,
    "HeatingScore": 2,
    "Id": "440f7bff-57db-420e-9031-4d35554afc10",
    "Name": "Alma Bacon Co Ap"
  },
  {
    "CountryCode": "KZ",
    "Country": "Kazakhstan",
    "Coordinates": {
      "Latitude": 43.2331,
      "Longitude": 76.9331,
      "Elevation": 851
    },
    "WarmingAnomaly": 2.371309178743962,
    "HeatingScore": 9,
    "Id": "6c9a4074-3c5b-4f9a-ae44-1a9022861cee",
    "Name": "Almaty"
  },
  {
    "CountryCode": "MG",
    "Country": "Mongolia",
    "Coordinates": {
      "Latitude": 46.4,
      "Longitude": 96.25,
      "Elevation": 2181
    },
    "WarmingAnomaly": 1.238423611111111,
    "HeatingScore": 5,
    "Id": "9d6801ef-d8ac-418a-bb56-256a45781c75",
    "Name": "Altai"
  },
  {
    "CountryCode": "CH",
    "Country": "China",
    "Coordinates": {
      "Latitude": 47.733,
      "Longitude": 88.083,
      "Elevation": 737
    },
    "WarmingAnomaly": 1.5177407407407406,
    "HeatingScore": 7,
    "Id": "271d0ddd-a45d-4649-b307-524ae3d311a1",
    "Name": "Altay"
  },
  {
    "CountryCode": "US",
    "Country": "United States of America",
    "Coordinates": {
      "Latitude": 37.4403,
      "Longitude": -112.4819,
      "Elevation": 2163.5
    },
    "WarmingAnomaly": 0.8200277777777769,
    "HeatingScore": 2,
    "Id": "e83efe77-213f-4ecc-ace2-34b3696440e7",
    "Name": "Alton"
  },
  {
    "CountryCode": "LG",
    "Country": "Latvia",
    "Coordinates": {
      "Latitude": 57.433,
      "Longitude": 27.033,
      "Elevation": 193
    },
    "WarmingAnomaly": 1.332556306306306,
    "HeatingScore": 6,
    "Id": "328ea8bd-d4a8-4ac6-9cda-84acd39bb7d0",
    "Name": "Aluksne"
  },
  {
    "CountryCode": "US",
    "Country": "United States of America",
    "Coordinates": {
      "Latitude": 35.2333,
      "Longitude": -101.7089,
      "Elevation": 1093.3
    },
    "WarmingAnomaly": 0.7386250000000043,
    "HeatingScore": 1,
    "Id": "443b8b41-cbcc-4a1e-a784-9c5653dbb9dc",
    "Name": "Amarillo"
  },
  {
    "CountryCode": "AS",
    "Country": "Australia",
    "Coordinates": {
      "Latitude": -27.63,
      "Longitude": 152.71,
      "Elevation": 24
    },
    "WarmingAnomaly": 0.8522886958662745,
    "HeatingScore": 2,
    "Id": "0cfb93a1-e0b6-4b87-87a6-90c0e01ca9ca",
    "Name": "Amberley"
  },
  {
    "CountryCode": "RS",
    "Country": "Russia",
    "Coordinates": {
      "Latitude": 69.75,
      "Longitude": 61.7,
      "Elevation": 53
    },
    "WarmingAnomaly": 1.203748062015503,
    "HeatingScore": 5,
    "Id": "c5b79cb5-95d2-4138-8747-141fe481c1eb",
    "Name": "Amderma"
  },
  {
    "CountryCode": "CV",
    "Country": "Cape Verde",
    "Coordinates": {
      "Latitude": 16.741,
      "Longitude": -22.949,
      "Elevation": 53.9
    },
    "Id": "6af9e807-9e4e-41c1-9433-f479568db609",
    "Name": "Amilcar Cabral Intl"
  },
  {
    "CountryCode": "AY",
    "Country": "Antarctica",
    "Coordinates": {
      "Latitude": -90,
      "Longitude": 0,
      "Elevation": 9999
    },
    "WarmingAnomaly": 0.16280555555555765,
    "HeatingScore": 0,
    "Id": "8e984ba8-451a-4ae7-86e5-f670f31ccd05",
    "Name": "Amundsen Scott"
  },
  {
    "CountryCode": "RS",
    "Country": "Russia",
    "Coordinates": {
      "Latitude": 64.7831,
      "Longitude": 177.5667,
      "Elevation": 64
    },
    "WarmingAnomaly": 1.5544845679012367,
    "HeatingScore": 7,
    "Id": "33de36e1-87b6-4e66-bda4-615bbfe90845",
    "Name": "Anadyr"
  },
  {
    "CountryCode": "US",
    "Country": "United States of America",
    "Coordinates": {
      "Latitude": 61.1689,
      "Longitude": -150.0278,
      "Elevation": 36.6
    },
    "WarmingAnomaly": 1.5950499999999994,
    "HeatingScore": 8,
    "Id": "36c27589-cab2-444b-8a79-e0115547356c",
    "Name": "Anchorage Intl Ap"
  },
  {
    "CountryCode": "CH",
    "Country": "China",
    "Coordinates": {
      "Latitude": 46.383,
      "Longitude": 125.317,
      "Elevation": 150
    },
    "WarmingAnomaly": 1.9680135658914737,
    "HeatingScore": 9,
    "Id": "e19e0ac0-b84d-4200-a039-5a5a914984ff",
    "Name": "Anda"
  },
  {
    "CountryCode": "NH",
    "Country": "Vanuatu",
    "Coordinates": {
      "Latitude": -20.233,
      "Longitude": 169.767,
      "Elevation": 7
    },
    "Id": "7da1fe23-af9d-463a-8b68-84bf1555ed62",
    "Name": "Aneityum"
  },
  {
    "CountryCode": "GM",
    "Country": "Germany",
    "Coordinates": {
      "Latitude": 53.0331,
      "Longitude": 13.9931,
      "Elevation": 54
    },
    "WarmingAnomaly": 1.3794255952380947,
    "HeatingScore": 6,
    "Id": "86e6c1d3-abee-4da8-b545-f5d8e48d5aef",
    "Name": "Angermunde"
  },
  {
    "CountryCode": "TU",
    "Country": "Turkey",
    "Coordinates": {
      "Latitude": 39.95,
      "Longitude": 32.883,
      "Elevation": 891
    },
    "WarmingAnomaly": 0.8551313131313183,
    "HeatingScore": 2,
    "Id": "21624526-e935-4ee7-854c-e6f5a3570003",
    "Name": "Ankara Central"
  },
  {
    "CountryCode": "CH",
    "Country": "China",
    "Coordinates": {
      "Latitude": 30.533,
      "Longitude": 117.05,
      "Elevation": 20
    },
    "WarmingAnomaly": 1.0103015873015906,
    "HeatingScore": 3,
    "Id": "26b27fe8-638c-4417-a6d7-543d6bece301",
    "Name": "Anqing"
  },
  {
    "CountryCode": "TU",
    "Country": "Turkey",
    "Coordinates": {
      "Latitude": 36.899,
      "Longitude": 30.8,
      "Elevation": 53.9
    },
    "WarmingAnomaly": 0.7767986111111114,
    "HeatingScore": 2,
    "Id": "328faa2f-352b-4e67-9a9c-69b673bbb06a",
    "Name": "Antalya"
  },
  {
    "CountryCode": "MA",
    "Country": "Madagascar",
    "Coordinates": {
      "Latitude": -18.8,
      "Longitude": 47.483,
      "Elevation": 1276
    },
    "Id": "eec4d6b2-1123-4893-9fd4-3d18fb8e6a3f",
    "Name": "Antananarivo Ivato"
  },
  {
    "CountryCode": "CI",
    "Country": "Chile",
    "Coordinates": {
      "Latitude": -23.433,
      "Longitude": -70.45,
      "Elevation": 140
    },
    "WarmingAnomaly": -0.12712301587301766,
    "HeatingScore": 0,
    "Id": "8497df8c-47d3-42db-8aff-ac6e1cf426c7",
    "Name": "Antofagasta"
  },
  {
    "CountryCode": "CH",
    "Country": "China",
    "Coordinates": {
      "Latitude": 36.05,
      "Longitude": 114.4,
      "Elevation": 64
    },
    "WarmingAnomaly": 1.0881038011695967,
    "HeatingScore": 4,
    "Id": "80f623d4-33a0-4ac3-97ed-05540e235563",
    "Name": "Anyang"
  },
  {
    "CountryCode": "US",
    "Country": "United States of America",
    "Coordinates": {
      "Latitude": 29.7258,
      "Longitude": -85.0206,
      "Elevation": 6.1
    },
    "WarmingAnomaly": 0.2053333333333356,
    "HeatingScore": 0,
    "Id": "b79cbe0f-a435-4a57-b7ea-dc80f040bc9c",
    "Name": "Apalachicolaairport"
  },
  {
    "CountryCode": "RP",
    "Country": "Philippines",
    "Coordinates": {
      "Latitude": 18.367,
      "Longitude": 121.633,
      "Elevation": 3
    },
    "WarmingAnomaly": 1.2578518518518607,
    "HeatingScore": 5,
    "Id": "60da5648-a5e8-4460-9c17-52272410bc42",
    "Name": "Aparri"
  },
  {
    "CountryCode": "RS",
    "Country": "Russia",
    "Coordinates": {
      "Latitude": 60.43,
      "Longitude": 169.67,
      "Elevation": 3
    },
    "WarmingAnomaly": 0.9157361111111111,
    "HeatingScore": 2,
    "Id": "696fddd1-9cf6-4340-a77e-a8e4cfa08a22",
    "Name": "Apuka"
  },
  {
    "CountryCode": "IR",
    "Country": "Iran",
    "Coordinates": {
      "Latitude": 34.138,
      "Longitude": 49.847,
      "Elevation": 1661.8
    },
    "WarmingAnomaly": 1.6793333333333358,
    "HeatingScore": 8,
    "Id": "60a291b7-cab1-4941-bbd5-62e4259b423a",
    "Name": "Arak"
  },
  {
    "CountryCode": "KZ",
    "Country": "Kazakhstan",
    "Coordinates": {
      "Latitude": 46.7794,
      "Longitude": 61.6694,
      "Elevation": 62
    },
    "WarmingAnomaly": 2.254196078431372,
    "HeatingScore": 9,
    "Id": "b0e59f66-1a2b-4124-98f5-cd80ad88610a",
    "Name": "Aralskoe More"
  },
  {
    "CountryCode": "TH",
    "Country": "Thailand",
    "Coordinates": {
      "Latitude": 13.7,
      "Longitude": 102.583,
      "Elevation": 49
    },
    "WarmingAnomaly": 0.825698924731185,
    "HeatingScore": 2,
    "Id": "447723e6-01b8-44b5-8290-fede2b0ee7c5",
    "Name": "Aranyaprathet"
  },
  {
    "CountryCode": "SA",
    "Country": "Saudi Arabia",
    "Coordinates": {
      "Latitude": 30.907,
      "Longitude": 41.138,
      "Elevation": 552.6
    },
    "Id": "d33a8a75-0126-4653-94d7-e642f4e1fc1c",
    "Name": "Arar"
  },
  {
    "CountryCode": "PE",
    "Country": "Peru",
    "Coordinates": {
      "Latitude": -16.332,
      "Longitude": -71.567,
      "Elevation": 2520
    },
    "Id": "11276ed1-cc5c-44fc-935b-28d41952b6fb",
    "Name": "Arequipa"
  },
  {
    "CountryCode": "RS",
    "Country": "Russia",
    "Coordinates": {
      "Latitude": 64.5,
      "Longitude": 40.7331,
      "Elevation": 8
    },
    "WarmingAnomaly": 2.0998905228758167,
    "HeatingScore": 9,
    "Id": "bb32a5a2-18bb-485e-b0a1-e476d390b5aa",
    "Name": "Arhangelsk"
  },
  {
    "CountryCode": "RS",
    "Country": "Russia",
    "Coordinates": {
      "Latitude": 49.4167,
      "Longitude": 130.0831,
      "Elevation": 133
    },
    "WarmingAnomaly": 1.3196821705426358,
    "HeatingScore": 5,
    "Id": "c2fd9b05-14f0-4a2b-bb37-b0e2e6d0e2f4",
    "Name": "Arhara"
  },
  {
    "CountryCode": "CI",
    "Country": "Chile",
    "Coordinates": {
      "Latitude": -18.35,
      "Longitude": -70.333,
      "Elevation": 58
    },
    "WarmingAnomaly": 1.1834960317460315,
    "HeatingScore": 4,
    "Id": "138e5a4b-2a8e-49b1-8944-713353613da5",
    "Name": "Arica"
  },
  {
    "CountryCode": "RS",
    "Country": "Russia",
    "Coordinates": {
      "Latitude": 44.9831,
      "Longitude": 41.1167,
      "Elevation": 159
    },
    "WarmingAnomaly": 1.2121666666666666,
    "HeatingScore": 5,
    "Id": "4b3a2811-a771-4abc-9cfc-26fa450e7fcc",
    "Name": "Armavir"
  },
  {
    "CountryCode": "MG",
    "Country": "Mongolia",
    "Coordinates": {
      "Latitude": 46.267,
      "Longitude": 102.783,
      "Elevation": 1813
    },
    "WarmingAnomaly": 1.6798824786324786,
    "HeatingScore": 8,
    "Id": "ce091dc9-e810-4fe4-bfcb-88f473825c6f",
    "Name": "Arvaiheer"
  },
  {
    "CountryCode": "CH",
    "Country": "China",
    "Coordinates": {
      "Latitude": 47.167,
      "Longitude": 119.933,
      "Elevation": 997
    },
    "WarmingAnomaly": 1.495011904761904,
    "HeatingScore": 7,
    "Id": "ed44f6be-87f0-4b0a-9e5a-54a141f583ff",
    "Name": "Arxan"
  },
  {
    "CountryCode": "JA",
    "Country": "Japan",
    "Coordinates": {
      "Latitude": 43.767,
      "Longitude": 142.367,
      "Elevation": 116
    },
    "WarmingAnomaly": 1.3795505804311743,
    "HeatingScore": 6,
    "Id": "793376e3-9933-4dd2-8ebf-4d184599a9b3",
    "Name": "Asahikawa"
  },
  {
    "CountryCode": "TX",
    "Country": "Turkmenistan",
    "Coordinates": {
      "Latitude": 37.9667,
      "Longitude": 58.3331,
      "Elevation": 208
    },
    "WarmingAnomaly": 1.3691369731800798,
    "HeatingScore": 6,
    "Id": "1bd93814-1fd4-403f-9574-8507399d5435",
    "Name": "Ashgabat"
  },
  {
    "CountryCode": "UP",
    "Country": "Ukraine",
    "Coordinates": {
      "Latitude": 46.5,
      "Longitude": 33.9,
      "Elevation": 28
    },
    "WarmingAnomaly": 1.0971739130434717,
    "HeatingScore": 4,
    "Id": "680f5418-d2bb-4255-ae1b-1e746a65873f",
    "Name": "Askaniia Nova"
  },
  {
    "CountryCode": "EG",
    "Country": "Egypt",
    "Coordinates": {
      "Latitude": 23.9667,
      "Longitude": 32.7831,
      "Elevation": 200
    },
    "WarmingAnomaly": 0.8719257369614617,
    "HeatingScore": 2,
    "Id": "cae01ec4-c9a0-4d8f-8ff9-a2d90b80a368",
    "Name": "Asswan"
  },
  {
    "CountryCode": "KZ",
    "Country": "Kazakhstan",
    "Coordinates": {
      "Latitude": 51.1331,
      "Longitude": 71.3667,
      "Elevation": 350
    },
    "WarmingAnomaly": 2.423027777777777,
    "HeatingScore": 9,
    "Id": "a9ec2cea-6e58-447c-9ffb-137ca2a14f70",
    "Name": "Astana"
  },
  {
    "CountryCode": "RS",
    "Country": "Russia",
    "Coordinates": {
      "Latitude": 46.2831,
      "Longitude": 48.05,
      "Elevation": -23
    },
    "WarmingAnomaly": 1.9670654761904753,
    "HeatingScore": 9,
    "Id": "3f85d211-4193-441a-82b9-63e2c3d0c916",
    "Name": "Astrakan"
  },
  {
    "CountryCode": "TO",
    "Country": "Togo",
    "Coordinates": {
      "Latitude": 7.58,
      "Longitude": 1.12,
      "Elevation": 402
    },
    "Id": "6f7d7e18-d72f-4107-a449-627a98e66375",
    "Name": "Atakpane"
  },
  {
    "CountryCode": "KZ",
    "Country": "Kazakhstan",
    "Coordinates": {
      "Latitude": 51.8167,
      "Longitude": 68.3667,
      "Elevation": 304
    },
    "WarmingAnomaly": 1.532126984126984,
    "HeatingScore": 7,
    "Id": "55214f56-682a-485e-99ea-81da064e7ea4",
    "Name": "Atbasar"
  },
  {
    "CountryCode": "GR",
    "Country": "Greece",
    "Coordinates": {
      "Latitude": 37.9667,
      "Longitude": 23.7167,
      "Elevation": 106
    },
    "WarmingAnomaly": 0.7296722222222236,
    "HeatingScore": 1,
    "Id": "0db76f27-b2b5-43a5-9d3a-7dc50b5f0262",
    "Name": "Athinai Observatory"
  },
  {
    "CountryCode": "US",
    "Country": "United States of America",
    "Coordinates": {
      "Latitude": 33.63,
      "Longitude": -84.4417,
      "Elevation": 307.8
    },
    "WarmingAnomaly": 0.8459097222222276,
    "HeatingScore": 2,
    "Id": "2973b65b-6436-44e9-b4c3-41b019d5dcb1",
    "Name": "Atlanta Hartsfield Intl Ap"
  },
  {
    "CountryCode": "CA",
    "Country": "Canada",
    "Coordinates": {
      "Latitude": 59.5667,
      "Longitude": -133.7,
      "Elevation": 674
    },
    "WarmingAnomaly": 1.1619594017094017,
    "HeatingScore": 4,
    "Id": "12d74158-a461-4b8c-9dc3-3fa3b34af99a",
    "Name": "Atlin"
  },
  {
    "CountryCode": "KZ",
    "Country": "Kazakhstan",
    "Coordinates": {
      "Latitude": 47.1167,
      "Longitude": 51.9167,
      "Elevation": -22
    },
    "WarmingAnomaly": 2.403678315412188,
    "HeatingScore": 9,
    "Id": "3b5a45d4-3e9d-4490-a87c-1fd898cc0d05",
    "Name": "Atyrau"
  },
  {
    "CountryCode": "NZ",
    "Country": "New Zealand",
    "Coordinates": {
      "Latitude": -37,
      "Longitude": 174.8,
      "Elevation": 7
    },
    "WarmingAnomaly": 1.3980645424836542,
    "HeatingScore": 6,
    "Id": "5217a55c-93c0-4313-9d3a-6c5e934b4bc7",
    "Name": "Auckland Aero Aws"
  },
  {
    "CountryCode": "GM",
    "Country": "Germany",
    "Coordinates": {
      "Latitude": 48.4264,
      "Longitude": 10.9431,
      "Elevation": 461
    },
    "WarmingAnomaly": 2.123142934196328,
    "HeatingScore": 9,
    "Id": "d6fa3ebb-cdec-46af-a340-f7b511e42ede",
    "Name": "Augsburg"
  },
  {
    "CountryCode": "RS",
    "Country": "Russia",
    "Coordinates": {
      "Latitude": 59.4,
      "Longitude": 35.9,
      "Elevation": 137
    },
    "WarmingAnomaly": 1.2496980286738353,
    "HeatingScore": 5,
    "Id": "9a89975d-12dd-4bd6-aa3f-dfe6ea7f7f0c",
    "Name": "Babaevo"
  },
  {
    "CountryCode": "RS",
    "Country": "Russia",
    "Coordinates": {
      "Latitude": 51.72,
      "Longitude": 105.85,
      "Elevation": 465
    },
    "WarmingAnomaly": 1.8839778719397369,
    "HeatingScore": 9,
    "Id": "434a48ee-96db-4bc4-901a-0537d1ee3a76",
    "Name": "Babuskin"
  },
  {
    "CountryCode": "RO",
    "Country": "Romania",
    "Coordinates": {
      "Latitude": 46.5331,
      "Longitude": 26.9167,
      "Elevation": 184
    },
    "WarmingAnomaly": 1.1828709677419376,
    "HeatingScore": 4,
    "Id": "9e5a5b91-9782-477a-9472-7ecbdcf44d47",
    "Name": "Bacau"
  },
  {
    "CountryCode": "CH",
    "Country": "China",
    "Coordinates": {
      "Latitude": 39.8,
      "Longitude": 78.567,
      "Elevation": 1117
    },
    "WarmingAnomaly": 1.143813492063499,
    "HeatingScore": 4,
    "Id": "e81383a4-360c-4d3b-9e53-121bdacfa549",
    "Name": "Bachu"
  },
  {
    "CountryCode": "GM",
    "Country": "Germany",
    "Coordinates": {
      "Latitude": 52.1,
      "Longitude": 8.75,
      "Elevation": 98
    },
    "WarmingAnomaly": 1.4772872628726255,
    "HeatingScore": 7,
    "Id": "b7fa5a4f-f3e8-4374-96e1-84603fc04b84",
    "Name": "Bad Salzuflen"
  },
  {
    "CountryCode": "SP",
    "Country": "Spain",
    "Coordinates": {
      "Latitude": 38.8831,
      "Longitude": -6.8292,
      "Elevation": 185
    },
    "WarmingAnomaly": 1.5080359477124166,
    "HeatingScore": 7,
    "Id": "caa276c0-914e-4671-a29e-2af41f870dbb",
    "Name": "Badajoz Talavera La Real"
  },
  {
    "CountryCode": "RS",
    "Country": "Russia",
    "Coordinates": {
      "Latitude": 54.47,
      "Longitude": 113.58,
      "Elevation": 901
    },
    "WarmingAnomaly": 1.1806736111111134,
    "HeatingScore": 4,
    "Id": "a65dfe7a-ef07-4d5d-9fda-d8239c21f280",
    "Name": "Bagdarin"
  },
  {
    "CountryCode": "CA",
    "Country": "Canada",
    "Coordinates": {
      "Latitude": 48.3333,
      "Longitude": -71,
      "Elevation": 159
    },
    "WarmingAnomaly": 1.0653128654970756,
    "HeatingScore": 3,
    "Id": "6a594259-6678-4aab-b8b1-aa98ea23d257",
    "Name": "Bagotville A"
  },
  {
    "CountryCode": "AR",
    "Country": "Argentina",
    "Coordinates": {
      "Latitude": -38.733,
      "Longitude": -62.167,
      "Elevation": 75
    },
    "WarmingAnomaly": 1.5641376811594192,
    "HeatingScore": 7,
    "Id": "a63c28dd-01eb-404f-b4f9-8818f7534975",
    "Name": "Bahia Blanca Aero"
  },
  {
    "CountryCode": "BA",
    "Country": "Bahrain",
    "Coordinates": {
      "Latitude": 26.267,
      "Longitude": 50.65,
      "Elevation": 2
    },
    "WarmingAnomaly": 2.02914215686274,
    "HeatingScore": 9,
    "Id": "e9b6093a-0774-4858-b975-02b748c85cbc",
    "Name": "Bahrain Int Airpo"
  },
  {
    "CountryCode": "RO",
    "Country": "Romania",
    "Coordinates": {
      "Latitude": 47.6667,
      "Longitude": 23.5,
      "Elevation": 216
    },
    "WarmingAnomaly": 0.46132437275985616,
    "HeatingScore": 0,
    "Id": "ca912b04-3a89-45de-80df-839cc7951c54",
    "Name": "Baia Mare"
  },
  {
    "CountryCode": "CH",
    "Country": "China",
    "Coordinates": {
      "Latitude": 41.7,
      "Longitude": 110.433,
      "Elevation": 1377
    },
    "WarmingAnomaly": 1.7572142857142858,
    "HeatingScore": 8,
    "Id": "a4985651-47b4-4eb2-82b0-c0a810b3e5a1",
    "Name": "Bailing Miao"
  },
  {
    "CountryCode": "CH",
    "Country": "China",
    "Coordinates": {
      "Latitude": 23.9,
      "Longitude": 106.6,
      "Elevation": 177
    },
    "WarmingAnomaly": 0.13582407407406905,
    "HeatingScore": 0,
    "Id": "989a4c6e-4226-4657-9771-c1ac93c646f8",
    "Name": "Baise"
  },
  {
    "CountryCode": "RS",
    "Country": "Russia",
    "Coordinates": {
      "Latitude": 53.1,
      "Longitude": 105.53,
      "Elevation": 757
    },
    "WarmingAnomaly": 1.550224358974359,
    "HeatingScore": 7,
    "Id": "b4e10769-948a-450c-b875-3c160c6af762",
    "Name": "Bajandaj"
  },
  {
    "CountryCode": "RS",
    "Country": "Russia",
    "Coordinates": {
      "Latitude": 61.6667,
      "Longitude": 96.3667,
      "Elevation": 256
    },
    "WarmingAnomaly": 1.3489883720930251,
    "HeatingScore": 6,
    "Id": "4d8e5cff-c7ca-4060-820f-93c7246c85ac",
    "Name": "Bajkit"
  },
  {
    "CountryCode": "TX",
    "Country": "Turkmenistan",
    "Coordinates": {
      "Latitude": 37.6,
      "Longitude": 62.1831,
      "Elevation": 240
    },
    "WarmingAnomaly": 1.616190860215056,
    "HeatingScore": 8,
    "Id": "d61ab419-bc50-4651-8f6c-2f45cb7e9ee5",
    "Name": "Bajramaly"
  },
  {
    "CountryCode": "RS",
    "Country": "Russia",
    "Coordinates": {
      "Latitude": 57,
      "Longitude": 82.07,
      "Elevation": 109
    },
    "WarmingAnomaly": 1.330833333333333,
    "HeatingScore": 6,
    "Id": "aaaed456-0647-45b8-a91a-ea28f6544fbc",
    "Name": "Bakchar"
  },
  {
    "CountryCode": "CA",
    "Country": "Canada",
    "Coordinates": {
      "Latitude": 64.3,
      "Longitude": -96.0833,
      "Elevation": 19
    },
    "WarmingAnomaly": 1.782546296296296,
    "HeatingScore": 8,
    "Id": "906720a8-fafc-4b81-afea-a72bb4253cc1",
    "Name": "Baker Lake A"
  },
  {
    "CountryCode": "US",
    "Country": "United States of America",
    "Coordinates": {
      "Latitude": 35.4344,
      "Longitude": -119.0542,
      "Elevation": 149
    },
    "WarmingAnomaly": 1.1578589743589731,
    "HeatingScore": 4,
    "Id": "c8b399ea-f5bd-43cf-9a4c-8fe5d6b49392",
    "Name": "Bakersfield Ap"
  },
  {
    "CountryCode": "RS",
    "Country": "Russia",
    "Coordinates": {
      "Latitude": 54,
      "Longitude": 103.07,
      "Elevation": 428
    },
    "WarmingAnomaly": 1.839375968992248,
    "HeatingScore": 9,
    "Id": "6bfdbbf3-7b41-45f2-b8a5-c334dfe63d47",
    "Name": "Balagansk"
  },
  {
    "CountryCode": "KZ",
    "Country": "Kazakhstan",
    "Coordinates": {
      "Latitude": 46.8,
      "Longitude": 75.0831,
      "Elevation": 350
    },
    "WarmingAnomaly": 1.1611614987080117,
    "HeatingScore": 4,
    "Id": "2db7f106-0625-4238-a2d4-02d8d91624dd",
    "Name": "Balhash"
  },
  {
    "CountryCode": "AS",
    "Country": "Australia",
    "Coordinates": {
      "Latitude": -37.5127,
      "Longitude": 143.7911,
      "Elevation": 435.2
    },
    "WarmingAnomaly": 1.207496913580247,
    "HeatingScore": 5,
    "Id": "b17fbfdd-1d5a-4dbf-a633-ab5cce699bef",
    "Name": "Ballarat Aerodrome"
  },
  {
    "CountryCode": "US",
    "Country": "United States of America",
    "Coordinates": {
      "Latitude": 31.7414,
      "Longitude": -99.9764,
      "Elevation": 534.9
    },
    "WarmingAnomaly": 0.66681818181819,
    "HeatingScore": 1,
    "Id": "17fd9852-242c-450f-80ed-f0612ea41879",
    "Name": "Ballinger 2 Nw"
  },
  {
    "CountryCode": "GM",
    "Country": "Germany",
    "Coordinates": {
      "Latitude": 49.8753,
      "Longitude": 10.9217,
      "Elevation": 240
    },
    "WarmingAnomaly": 1.950895931142412,
    "HeatingScore": 9,
    "Id": "8845dc8d-7ea2-46c9-bca7-87b48b50e43e",
    "Name": "Bamberg"
  },
  {
    "CountryCode": "IR",
    "Country": "Iran",
    "Coordinates": {
      "Latitude": 27.218,
      "Longitude": 56.378,
      "Elevation": 6.7
    },
    "WarmingAnomaly": 1.0884444444444377,
    "HeatingScore": 4,
    "Id": "57ceaa30-dffe-4ca2-930d-75991dd160e4",
    "Name": "Bandar Abbass Intl"
  },
  {
    "CountryCode": "CA",
    "Country": "Canada",
    "Coordinates": {
      "Latitude": 51.1833,
      "Longitude": -115.5667,
      "Elevation": 1384
    },
    "WarmingAnomaly": 0.665675595238095,
    "HeatingScore": 1,
    "Id": "819b0cd5-2b10-46bc-a9ad-06c95ab0d4f7",
    "Name": "Banff"
  },
  {
    "CountryCode": "IN",
    "Country": "India",
    "Coordinates": {
      "Latitude": 12.967,
      "Longitude": 77.583,
      "Elevation": 921
    },
    "WarmingAnomaly": 0.5762408789386377,
    "HeatingScore": 0,
    "Id": "ac31ef0d-e2c7-46fe-a364-ae1bd3768304",
    "Name": "Bangalore"
  },
  {
    "CountryCode": "TH",
    "Country": "Thailand",
    "Coordinates": {
      "Latitude": 13.733,
      "Longitude": 100.567,
      "Elevation": 4
    },
    "WarmingAnomaly": 0.8544166666666726,
    "HeatingScore": 2,
    "Id": "987d5be4-f4d8-4ad8-8b92-0f650db51388",
    "Name": "Bangkok Metropolis"
  },
  {
    "CountryCode": "CT",
    "Country": "Central African Republic",
    "Coordinates": {
      "Latitude": 4.398,
      "Longitude": 18.519,
      "Elevation": 368.2
    },
    "Id": "d74310d3-e319-4e66-b336-9e7a2bb79c62",
    "Name": "Bangui M Poko"
  },
  {
    "CountryCode": "GA",
    "Country": "Gambia, The",
    "Coordinates": {
      "Latitude": 13.338,
      "Longitude": -16.652,
      "Elevation": 29
    },
    "Id": "da0a1353-4b79-41ce-a9ce-7c54d2130eec",
    "Name": "Banjul Intl"
  },
  {
    "CountryCode": "RS",
    "Country": "Russia",
    "Coordinates": {
      "Latitude": 55.3331,
      "Longitude": 78.3667,
      "Elevation": 119
    },
    "WarmingAnomaly": 2.2148827160493827,
    "HeatingScore": 9,
    "Id": "93e45a88-05dd-4898-9b78-fbac4ead95dc",
    "Name": "Barabinsk"
  },
  {
    "CountryCode": "BO",
    "Country": "Belarus",
    "Coordinates": {
      "Latitude": 53.117,
      "Longitude": 26,
      "Elevation": 193
    },
    "WarmingAnomaly": 1.373638888888891,
    "HeatingScore": 6,
    "Id": "c7ee01ac-8817-4bd9-95de-054fa8b470c6",
    "Name": "Baranovichi"
  },
  {
    "CountryCode": "AS",
    "Country": "Australia",
    "Coordinates": {
      "Latitude": -23.55,
      "Longitude": 145.29,
      "Elevation": 266
    },
    "Id": "176e8056-e246-4566-b307-3c0b1ca8fde4",
    "Name": "Barcaldine"
  },
  {
    "CountryCode": "IN",
    "Country": "India",
    "Coordinates": {
      "Latitude": 28.367,
      "Longitude": 79.4,
      "Elevation": 169
    },
    "WarmingAnomaly": 0.8253028455284621,
    "HeatingScore": 2,
    "Id": "237b7d47-c334-4c45-af86-5f29ab7b0e5f",
    "Name": "Bareilly"
  },
  {
    "CountryCode": "SV",
    "Country": "Svalbard [Norway]",
    "Coordinates": {
      "Latitude": 78.1,
      "Longitude": 14.3,
      "Elevation": 49
    },
    "WarmingAnomaly": 1.5342484984984988,
    "HeatingScore": 7,
    "Id": "e0695a94-3920-4ed3-a14f-8c68de31f426",
    "Name": "Barencburg"
  },
  {
    "CountryCode": "RS",
    "Country": "Russia",
    "Coordinates": {
      "Latitude": 53.6167,
      "Longitude": 109.6331,
      "Elevation": 488
    },
    "WarmingAnomaly": 1.6830429292929294,
    "HeatingScore": 8,
    "Id": "8ce2feeb-b01f-41b0-819c-2616c01d4351",
    "Name": "Barguzin"
  },
  {
    "CountryCode": "BG",
    "Country": "Bangladesh",
    "Coordinates": {
      "Latitude": 22.75,
      "Longitude": 90.367,
      "Elevation": 4
    },
    "WarmingAnomaly": 1.0847137681159396,
    "HeatingScore": 4,
    "Id": "d5669318-d2fc-4f27-9500-4b860fe72d5c",
    "Name": "Barisal"
  },
  {
    "CountryCode": "CH",
    "Country": "China",
    "Coordinates": {
      "Latitude": 31.9,
      "Longitude": 102.233,
      "Elevation": 2666
    },
    "WarmingAnomaly": 0.5741818181818132,
    "HeatingScore": 0,
    "Id": "2c51aa7a-9517-49a5-8fe0-cd732c926a2e",
    "Name": "Barkam"
  },
  {
    "CountryCode": "CA",
    "Country": "Canada",
    "Coordinates": {
      "Latitude": 53.0667,
      "Longitude": -121.5167,
      "Elevation": 1283
    },
    "WarmingAnomaly": 0.387468954248366,
    "HeatingScore": 0,
    "Id": "6cce2edd-9fb7-4f4c-a1dc-3b2522d13df8",
    "Name": "Barkerville"
  },
  {
    "CountryCode": "RS",
    "Country": "Russia",
    "Coordinates": {
      "Latitude": 53.4331,
      "Longitude": 83.5167,
      "Elevation": 183
    },
    "WarmingAnomaly": 2.5802837078651684,
    "HeatingScore": 9,
    "Id": "8f8d329f-7133-4501-9805-72d66c45a549",
    "Name": "Barnaul"
  },
  {
    "CountryCode": "VE",
    "Country": "Venezuela",
    "Coordinates": {
      "Latitude": 10.043,
      "Longitude": -69.359,
      "Elevation": 622.4
    },
    "Id": "fc9b45bc-5675-4a4b-a6cd-2cf8fda29de1",
    "Name": "Barquisimeto Intl"
  },
  {
    "CountryCode": "US",
    "Country": "United States of America",
    "Coordinates": {
      "Latitude": 71.2833,
      "Longitude": -156.7814,
      "Elevation": 9.4
    },
    "WarmingAnomaly": 2.532183333333336,
    "HeatingScore": 9,
    "Id": "e8ad8450-1dc5-4327-9806-5919f49d835c",
    "Name": "Barrow Post Rogers Ap"
  },
  {
    "CountryCode": "AY",
    "Country": "Antarctica",
    "Coordinates": {
      "Latitude": -63.4,
      "Longitude": -56.983,
      "Elevation": 24
    },
    "WarmingAnomaly": 1.3920606060606078,
    "HeatingScore": 6,
    "Id": "dee04879-069e-4ad2-83ae-05eb8bb473c6",
    "Name": "Base Esperanza"
  },
  {
    "CountryCode": "AY",
    "Country": "Antarctica",
    "Coordinates": {
      "Latitude": -60.733,
      "Longitude": -44.733,
      "Elevation": 8
    },
    "WarmingAnomaly": 1.4610847953216375,
    "HeatingScore": 7,
    "Id": "5a177835-d1bf-478a-92b1-ab807f74211e",
    "Name": "Base Orcadas"
  },
  {
    "CountryCode": "SZ",
    "Country": "Switzerland",
    "Coordinates": {
      "Latitude": 47.55,
      "Longitude": 7.5831,
      "Elevation": 316
    },
    "WarmingAnomaly": 1.838057644110279,
    "HeatingScore": 9,
    "Id": "28b03622-4fe1-4d37-8fd6-98b74f3f7f65",
    "Name": "Basel Binningen"
  },
  {
    "CountryCode": "MO",
    "Country": "Morocco",
    "Coordinates": {
      "Latitude": 33.879,
      "Longitude": -5.515,
      "Elevation": 576.1
    },
    "Id": "cc79b410-4137-4af6-8de4-5190fc0f75f9",
    "Name": "Bassatine"
  },
  {
    "CountryCode": "AS",
    "Country": "Australia",
    "Coordinates": {
      "Latitude": -33.43,
      "Longitude": 149.56,
      "Elevation": 713
    },
    "Id": "0b927604-fbaa-4930-bb5c-cf4b0f8b8914",
    "Name": "Bathurst"
  },
  {
    "CountryCode": "US",
    "Country": "United States of America",
    "Coordinates": {
      "Latitude": 40.6117,
      "Longitude": -116.8917,
      "Elevation": 1373.1
    },
    "WarmingAnomaly": 1.0543840579710135,
    "HeatingScore": 3,
    "Id": "06576097-86fe-49e1-bced-cfefb6dfbedc",
    "Name": "Battle Mountain 4Se"
  },
  {
    "CountryCode": "GG",
    "Country": "Georgia",
    "Coordinates": {
      "Latitude": 41.633,
      "Longitude": 41.6,
      "Elevation": 32
    },
    "Id": "e232425b-38b2-42d6-a883-a3ff59753232",
    "Name": "Batumi"
  },
  {
    "CountryCode": "US",
    "Country": "United States of America",
    "Coordinates": {
      "Latitude": 48.7094,
      "Longitude": -94.5869,
      "Elevation": 323.7
    },
    "WarmingAnomaly": 0.6711493055555566,
    "HeatingScore": 1,
    "Id": "311a51dc-84e1-43da-9e75-ef48462280e5",
    "Name": "Baudette"
  },
  {
    "CountryCode": "CH",
    "Country": "China",
    "Coordinates": {
      "Latitude": 40.75,
      "Longitude": 104.5,
      "Elevation": 1329
    },
    "WarmingAnomaly": 1.4722398989899013,
    "HeatingScore": 7,
    "Id": "cd262703-b8ff-4c1b-b199-2e4115a20372",
    "Name": "Bayan Mod"
  },
  {
    "CountryCode": "AG",
    "Country": "Algeria",
    "Coordinates": {
      "Latitude": 31.646,
      "Longitude": -2.27,
      "Elevation": 811.1
    },
    "WarmingAnomaly": 1.126921146953407,
    "HeatingScore": 4,
    "Id": "3a08a60f-63fa-443d-9fca-5bc74afd78e8",
    "Name": "Bechar"
  },
  {
    "CountryCode": "CA",
    "Country": "Canada",
    "Coordinates": {
      "Latitude": 50.8333,
      "Longitude": -107.3167,
      "Elevation": 660
    },
    "WarmingAnomaly": 0.993474932249323,
    "HeatingScore": 3,
    "Id": "46b43d10-9ce3-44e6-b5c1-f9324c986f5d",
    "Name": "Beechy"
  },
  {
    "CountryCode": "IS",
    "Country": "Israel",
    "Coordinates": {
      "Latitude": 31.233,
      "Longitude": 34.783,
      "Elevation": 280
    },
    "Id": "962d136f-a4a2-4cc9-8eb8-b67f012fd486",
    "Name": "Beer Sheva"
  },
  {
    "CountryCode": "US",
    "Country": "United States of America",
    "Coordinates": {
      "Latitude": 28.4575,
      "Longitude": -97.7061,
      "Elevation": 77.7
    },
    "WarmingAnomaly": 0.9528508771929793,
    "HeatingScore": 3,
    "Id": "704fcf91-e6ed-42bc-a22c-1464b3e17f76",
    "Name": "Beeville 5 Ne"
  },
  {
    "CountryCode": "IN",
    "Country": "India",
    "Coordinates": {
      "Latitude": 17.45,
      "Longitude": 78.47,
      "Elevation": 527
    },
    "WarmingAnomaly": 0.6505570175438464,
    "HeatingScore": 1,
    "Id": "9c918f9a-6520-479c-b1ee-b1caed697540",
    "Name": "Begumpetobsy"
  },
  {
    "CountryCode": "CH",
    "Country": "China",
    "Coordinates": {
      "Latitude": 39.933,
      "Longitude": 116.283,
      "Elevation": 55
    },
    "WarmingAnomaly": 1.4976031746031815,
    "HeatingScore": 7,
    "Id": "df31ecee-c375-437b-adac-ab672d3cace1",
    "Name": "Beijing"
  },
  {
    "CountryCode": "MZ",
    "Country": "Mozambique",
    "Coordinates": {
      "Latitude": -19.8,
      "Longitude": 34.9,
      "Elevation": 16
    },
    "WarmingAnomaly": 0.5377743902439072,
    "HeatingScore": 0,
    "Id": "8510eac1-d2b4-4c4f-a4e9-0883d9bffff5",
    "Name": "Beira"
  },
  {
    "CountryCode": "PO",
    "Country": "Portugal",
    "Coordinates": {
      "Latitude": 38.0167,
      "Longitude": -7.8667,
      "Elevation": 246
    },
    "WarmingAnomaly": 1.0118038194444416,
    "HeatingScore": 3,
    "Id": "61223c65-cd73-466c-9e36-870355d13fa3",
    "Name": "Beja"
  },
  {
    "CountryCode": "RI",
    "Country": "Serbia",
    "Coordinates": {
      "Latitude": 44.8,
      "Longitude": 20.4667,
      "Elevation": 132
    },
    "WarmingAnomaly": 1.7667817460317448,
    "HeatingScore": 8,
    "Id": "7852895b-2cb6-44ed-919a-4e2567238c56",
    "Name": "Belgrade Observatory"
  },
  {
    "CountryCode": "CA",
    "Country": "Canada",
    "Coordinates": {
      "Latitude": 52.3833,
      "Longitude": -126.6,
      "Elevation": 36
    },
    "WarmingAnomaly": 1.0671068376068389,
    "HeatingScore": 3,
    "Id": "48e92d57-3b0b-46fd-ac71-467619cb27c3",
    "Name": "Bella Coola A"
  },
  {
    "CountryCode": "CA",
    "Country": "Canada",
    "Coordinates": {
      "Latitude": 44.15,
      "Longitude": -77.4,
      "Elevation": 76
    },
    "WarmingAnomaly": 1.0850808080808099,
    "HeatingScore": 4,
    "Id": "820b9938-47f7-490b-bd99-6828cfd87ed8",
    "Name": "Belleville"
  },
  {
    "CountryCode": "EI",
    "Country": "Ireland",
    "Coordinates": {
      "Latitude": 54.233,
      "Longitude": -10,
      "Elevation": 9.7
    },
    "WarmingAnomaly": 1.0383090277777782,
    "HeatingScore": 3,
    "Id": "1fbb2722-35b5-4576-830d-b152dcd0b43f",
    "Name": "Belmullet"
  },
  {
    "CountryCode": "RS",
    "Country": "Russia",
    "Coordinates": {
      "Latitude": 73.33,
      "Longitude": 70.0294,
      "Elevation": 6
    },
    "WarmingAnomaly": 1.3687361111111063,
    "HeatingScore": 6,
    "Id": "f458dd39-b0e7-4b42-b8b1-a13443f0f61a",
    "Name": "Bely Island"
  },
  {
    "CountryCode": "IS",
    "Country": "Israel",
    "Coordinates": {
      "Latitude": 32.011,
      "Longitude": 34.887,
      "Elevation": 41.1
    },
    "WarmingAnomaly": 1.21909722222221,
    "HeatingScore": 5,
    "Id": "d1a6f484-c91b-4c77-8280-939a66e10b09",
    "Name": "Ben Gurion"
  },
  {
    "CountryCode": "CH",
    "Country": "China",
    "Coordinates": {
      "Latitude": 32.95,
      "Longitude": 117.367,
      "Elevation": 22
    },
    "WarmingAnomaly": 1.1440714285714275,
    "HeatingScore": 4,
    "Id": "ef6833db-011b-466e-a169-055434f0e739",
    "Name": "Bengbu"
  },
  {
    "CountryCode": "LY",
    "Country": "Libya",
    "Coordinates": {
      "Latitude": 32.08,
      "Longitude": 20.27,
      "Elevation": 132
    },
    "Id": "09a137af-6b1e-41f7-9e05-6e13c065dd40",
    "Name": "Benghazi Benina"
  },
  {
    "CountryCode": "CT",
    "Country": "Central African Republic",
    "Coordinates": {
      "Latitude": 4.22,
      "Longitude": 15.78,
      "Elevation": 583
    },
    "Id": "ad629cc9-82fd-45d0-b19c-ffce7ef36bbc",
    "Name": "Berberati"
  },
  {
    "CountryCode": "RS",
    "Country": "Russia",
    "Coordinates": {
      "Latitude": 63.93,
      "Longitude": 65.05,
      "Elevation": 27
    },
    "WarmingAnomaly": 1.6330851254480292,
    "HeatingScore": 8,
    "Id": "2290fc13-80d3-4f05-8be4-73beb1b461b5",
    "Name": "Berezovo"
  },
  {
    "CountryCode": "GM",
    "Country": "Germany",
    "Coordinates": {
      "Latitude": 52.4639,
      "Longitude": 13.3017,
      "Elevation": 51
    },
    "WarmingAnomaly": 2.02075806451613,
    "HeatingScore": 9,
    "Id": "f63801a6-b540-41b5-9566-6069ff1ea04e",
    "Name": "Berlin Dahlem"
  },
  {
    "CountryCode": "US",
    "Country": "United States of America",
    "Coordinates": {
      "Latitude": 60.785,
      "Longitude": -161.8292,
      "Elevation": 31.1
    },
    "WarmingAnomaly": 1.4748997584541055,
    "HeatingScore": 7,
    "Id": "3a6e1087-a103-42b7-8f6c-f6b4181b2c86",
    "Name": "Bethel Ap"
  },
  {
    "CountryCode": "US",
    "Country": "United States of America",
    "Coordinates": {
      "Latitude": 66.9161,
      "Longitude": -151.5089,
      "Elevation": 195.7
    },
    "WarmingAnomaly": 2.070736842105263,
    "HeatingScore": 9,
    "Id": "ef9d03a9-1709-4d9d-b90e-ac0e5f1dfcb0",
    "Name": "Bettles Ap"
  },
  {
    "CountryCode": "RS",
    "Country": "Russia",
    "Coordinates": {
      "Latitude": 53,
      "Longitude": 49.4,
      "Elevation": 46
    },
    "WarmingAnomaly": 2.2256975308641977,
    "HeatingScore": 9,
    "Id": "ba17fb42-e03d-440b-af89-5b2388d6267a",
    "Name": "Bezenchuk"
  },
  {
    "CountryCode": "PL",
    "Country": "Poland",
    "Coordinates": {
      "Latitude": 53.1,
      "Longitude": 23.167,
      "Elevation": 151
    },
    "WarmingAnomaly": 1.215366161616159,
    "HeatingScore": 5,
    "Id": "9b786c79-d0fb-4a11-b8d5-b1f2712091e3",
    "Name": "Bialystok"
  },
  {
    "CountryCode": "US",
    "Country": "United States of America",
    "Coordinates": {
      "Latitude": 63.9944,
      "Longitude": -145.7214,
      "Elevation": 389.2
    },
    "WarmingAnomaly": 1.4237916666666661,
    "HeatingScore": 6,
    "Id": "93313f68-fb16-44cb-8efa-7c2234bb7d47",
    "Name": "Big Delta Ap"
  },
  {
    "CountryCode": "CH",
    "Country": "China",
    "Coordinates": {
      "Latitude": 27.3,
      "Longitude": 105.233,
      "Elevation": 1511
    },
    "WarmingAnomaly": 0.6108809523809473,
    "HeatingScore": 1,
    "Id": "f2567c70-2e41-45d2-984c-08cfdff29eb8",
    "Name": "Bijie"
  },
  {
    "CountryCode": "RS",
    "Country": "Russia",
    "Coordinates": {
      "Latitude": 52.68,
      "Longitude": 84.95,
      "Elevation": 224
    },
    "WarmingAnomaly": 1.8490794573643408,
    "HeatingScore": 9,
    "Id": "f90b2bb9-2de6-4c10-9672-4bc44b07b73d",
    "Name": "Bijsk Zonalnaja"
  },
  {
    "CountryCode": "IN",
    "Country": "India",
    "Coordinates": {
      "Latitude": 28,
      "Longitude": 73.3,
      "Elevation": 224
    },
    "WarmingAnomaly": 1.0967222222222297,
    "HeatingScore": 4,
    "Id": "a75dedd4-3f8a-48ce-8305-4cd2202d8b13",
    "Name": "Bikaner"
  },
  {
    "CountryCode": "SX",
    "Country": "South Georgia and the South Sandwich Islands [United Kingdom]",
    "Coordinates": {
      "Latitude": -54,
      "Longitude": -38.05,
      "Elevation": 2
    },
    "Id": "8cff2fed-3722-4895-8e03-90d7b494b229",
    "Name": "Bird Island"
  },
  {
    "CountryCode": "AS",
    "Country": "Australia",
    "Coordinates": {
      "Latitude": -25.9,
      "Longitude": 139.35,
      "Elevation": 46
    },
    "Id": "65aea1bb-5395-4b14-bf6f-8ca1559099cd",
    "Name": "Birdsville"
  },
  {
    "CountryCode": "NG",
    "Country": "Niger",
    "Coordinates": {
      "Latitude": 13.8,
      "Longitude": 5.25,
      "Elevation": 272
    },
    "Id": "4c708531-e692-4e39-a507-433c22e658a7",
    "Name": "Birni N\u0027konni"
  },
  {
    "CountryCode": "LH",
    "Country": "Lithuania",
    "Coordinates": {
      "Latitude": 56.2,
      "Longitude": 24.7667,
      "Elevation": 60
    },
    "WarmingAnomaly": 1.3825659722222232,
    "HeatingScore": 6,
    "Id": "c31679d1-6a9d-4e41-9a77-97d5c16e675d",
    "Name": "Birzai"
  },
  {
    "CountryCode": "RS",
    "Country": "Russia",
    "Coordinates": {
      "Latitude": 58.5167,
      "Longitude": 58.85,
      "Elevation": 463
    },
    "WarmingAnomaly": 1.0261433691756274,
    "HeatingScore": 3,
    "Id": "c27df4dc-f8e8-4e26-829e-edd258041bc6",
    "Name": "Biser"
  },
  {
    "CountryCode": "KG",
    "Country": "Kyrgyzstan",
    "Coordinates": {
      "Latitude": 42.83,
      "Longitude": 74.58,
      "Elevation": 756
    },
    "WarmingAnomaly": 1.5242169030732828,
    "HeatingScore": 7,
    "Id": "16907087-5a45-40df-aa6c-a31b0d904a95",
    "Name": "Bishkek"
  },
  {
    "CountryCode": "AG",
    "Country": "Algeria",
    "Coordinates": {
      "Latitude": 34.85,
      "Longitude": 5.72,
      "Elevation": 125
    },
    "WarmingAnomaly": 1.6511944444444353,
    "HeatingScore": 8,
    "Id": "b91e2339-bc1c-48a7-9e21-3305e247f8b4",
    "Name": "Biskra"
  },
  {
    "CountryCode": "US",
    "Country": "United States of America",
    "Coordinates": {
      "Latitude": 46.7708,
      "Longitude": -100.7603,
      "Elevation": 505.4
    },
    "WarmingAnomaly": 2.0582294520547926,
    "HeatingScore": 9,
    "Id": "812ed7f6-98c2-40c5-87fd-afbe6d6d54a8",
    "Name": "Bismarck"
  },
  {
    "CountryCode": "PU",
    "Country": "Guinea-Bissau",
    "Coordinates": {
      "Latitude": 11.895,
      "Longitude": -15.654,
      "Elevation": 39.3
    },
    "Id": "2a2db9a7-1a9c-48e5-b89a-86979a246753",
    "Name": "Bissau Oswaldo Vieira Intl"
  },
  {
    "CountryCode": "RO",
    "Country": "Romania",
    "Coordinates": {
      "Latitude": 47.15,
      "Longitude": 24.5,
      "Elevation": 367
    },
    "WarmingAnomaly": 1.3470231481481463,
    "HeatingScore": 6,
    "Id": "96ad4e6a-ae4e-46b6-a8d7-4c2fcde5da0f",
    "Name": "Bistrita"
  },
  {
    "CountryCode": "NO",
    "Country": "Norway",
    "Coordinates": {
      "Latitude": 74.5167,
      "Longitude": 19.0167,
      "Elevation": 16
    },
    "WarmingAnomaly": 1.6148402777777782,
    "HeatingScore": 8,
    "Id": "3f270bd9-f49b-454c-9156-e4b98cc94c1a",
    "Name": "Bjoernoeya"
  },
  {
    "CountryCode": "FR",
    "Country": "France",
    "Coordinates": {
      "Latitude": 43.6231,
      "Longitude": 1.3781,
      "Elevation": 151
    },
    "WarmingAnomaly": 1.8678272357723582,
    "HeatingScore": 9,
    "Id": "e057926c-4fec-478c-b0db-7b2b96002cab",
    "Name": "Blagnac Aerop Toulouse Blagna"
  },
  {
    "CountryCode": "RS",
    "Country": "Russia",
    "Coordinates": {
      "Latitude": 50.25,
      "Longitude": 127.5,
      "Elevation": 130
    },
    "WarmingAnomaly": 2.0556440972222227,
    "HeatingScore": 9,
    "Id": "4dc371f4-edec-4d26-a539-aa5f8a0a15e0",
    "Name": "Blagovescensk"
  },
  {
    "CountryCode": "US",
    "Country": "United States of America",
    "Coordinates": {
      "Latitude": 37.6131,
      "Longitude": -109.4847,
      "Elevation": 1838.6
    },
    "WarmingAnomaly": 1.2269334625323012,
    "HeatingScore": 5,
    "Id": "6abac71e-20c0-4f71-8e1b-8ec8e15dbb46",
    "Name": "Blanding"
  },
  {
    "CountryCode": "US",
    "Country": "United States of America",
    "Coordinates": {
      "Latitude": 42.2122,
      "Longitude": -71.1136,
      "Elevation": 190.5
    },
    "WarmingAnomaly": 1.8287549019607834,
    "HeatingScore": 9,
    "Id": "1fd61096-3838-41bd-a07a-bf5b9a920aeb",
    "Name": "Blue Hill"
  },
  {
    "CountryCode": "US",
    "Country": "United States of America",
    "Coordinates": {
      "Latitude": 33.6186,
      "Longitude": -114.7142,
      "Elevation": 120.4
    },
    "WarmingAnomaly": 0.6088154121863738,
    "HeatingScore": 1,
    "Id": "393e8522-0ec9-48cd-9743-e314442f139a",
    "Name": "Blythe Ap"
  },
  {
    "CountryCode": "UV",
    "Country": "Burkina Faso",
    "Coordinates": {
      "Latitude": 11.16,
      "Longitude": -4.331,
      "Elevation": 460.6
    },
    "WarmingAnomaly": 0.7123750000000051,
    "HeatingScore": 1,
    "Id": "e777322f-9064-442c-a62b-0e0e88261317",
    "Name": "Bobo Dioulasso"
  },
  {
    "CountryCode": "NO",
    "Country": "Norway",
    "Coordinates": {
      "Latitude": 67.267,
      "Longitude": 14.367,
      "Elevation": 13
    },
    "WarmingAnomaly": 0.7394372146118711,
    "HeatingScore": 1,
    "Id": "2b014050-a9b9-49d2-88f7-a966b1cef1c5",
    "Name": "Bodo Vi"
  },
  {
    "CountryCode": "RS",
    "Country": "Russia",
    "Coordinates": {
      "Latitude": 51.17,
      "Longitude": 37.35,
      "Elevation": 223
    },
    "WarmingAnomaly": 1.9756523297491029,
    "HeatingScore": 9,
    "Id": "3e8d80e6-7906-4c6a-aee8-b462cf0e1580",
    "Name": "Bogoroditskoye Fenino"
  },
  {
    "CountryCode": "CO",
    "Country": "Colombia",
    "Coordinates": {
      "Latitude": 4.701,
      "Longitude": -74.15,
      "Elevation": 2548
    },
    "Id": "3d2a7feb-c2fa-497e-8e2a-58df59a8c109",
    "Name": "Bogota Eldorado"
  },
  {
    "CountryCode": "BG",
    "Country": "Bangladesh",
    "Coordinates": {
      "Latitude": 24.85,
      "Longitude": 89.367,
      "Elevation": 20
    },
    "Id": "92367f1c-feff-4b34-be5b-89f2a441b51a",
    "Name": "Bogra"
  },
  {
    "CountryCode": "RS",
    "Country": "Russia",
    "Coordinates": {
      "Latitude": 58.3831,
      "Longitude": 97.45,
      "Elevation": 131
    },
    "WarmingAnomaly": 1.641103535353535,
    "HeatingScore": 8,
    "Id": "d44247fc-8431-4727-9c56-526832c4ffbd",
    "Name": "Bogucany"
  },
  {
    "CountryCode": "US",
    "Country": "United States of America",
    "Coordinates": {
      "Latitude": 43.5667,
      "Longitude": -116.2406,
      "Elevation": 857.7
    },
    "WarmingAnomaly": 0.6312055555555531,
    "HeatingScore": 1,
    "Id": "95293777-b4d1-4059-9d79-bf61d151793a",
    "Name": "Boise Air Terminal"
  },
  {
    "CountryCode": "GM",
    "Country": "Germany",
    "Coordinates": {
      "Latitude": 53.4,
      "Longitude": 10.683,
      "Elevation": 46
    },
    "WarmingAnomaly": 1.4128295795795847,
    "HeatingScore": 6,
    "Id": "7f425bc0-da35-4f7a-b931-61e8bcf7e224",
    "Name": "Boizenburg Aut"
  },
  {
    "CountryCode": "SW",
    "Country": "Sweden",
    "Coordinates": {
      "Latitude": 55.49,
      "Longitude": 14.05,
      "Elevation": 55
    },
    "WarmingAnomaly": 1.2219797297297257,
    "HeatingScore": 5,
    "Id": "c3851469-bbe4-461c-b678-9d444fcc951b",
    "Name": "Bollerup"
  },
  {
    "CountryCode": "AS",
    "Country": "Australia",
    "Coordinates": {
      "Latitude": -28.0336,
      "Longitude": 147.4803,
      "Elevation": 182.9
    },
    "WarmingAnomaly": 0.5731929429429456,
    "HeatingScore": 0,
    "Id": "8ec96f0d-f489-4a4d-ac25-718c1d36f049",
    "Name": "Bollon Mary St"
  },
  {
    "CountryCode": "RS",
    "Country": "Russia",
    "Coordinates": {
      "Latitude": 57.9,
      "Longitude": 34.1,
      "Elevation": 213
    },
    "WarmingAnomaly": 1.253512626262626,
    "HeatingScore": 5,
    "Id": "18b1040c-4a10-4b33-87e1-1d922a2bc97a",
    "Name": "Bologoe"
  },
  {
    "CountryCode": "RS",
    "Country": "Russia",
    "Coordinates": {
      "Latitude": 55.67,
      "Longitude": 84.4,
      "Elevation": 191
    },
    "WarmingAnomaly": 1.4692662601626014,
    "HeatingScore": 7,
    "Id": "d702b2ec-516b-48bf-acbd-59add7a8b7bc",
    "Name": "Bolotnoe"
  },
  {
    "CountryCode": "RS",
    "Country": "Russia",
    "Coordinates": {
      "Latitude": 54.83,
      "Longitude": 137.53,
      "Elevation": 9
    },
    "WarmingAnomaly": 1.2090600775193794,
    "HeatingScore": 5,
    "Id": "db4593a8-fb81-475b-8482-ce9d7652982a",
    "Name": "Bolsoy Santar"
  },
  {
    "CountryCode": "TU",
    "Country": "Turkey",
    "Coordinates": {
      "Latitude": 40.733,
      "Longitude": 31.6,
      "Elevation": 743
    },
    "WarmingAnomaly": 1.4122539682539728,
    "HeatingScore": 6,
    "Id": "2781a038-81b5-49af-83c0-bf0cb4b01f1c",
    "Name": "Bolu"
  },
  {
    "CountryCode": "AS",
    "Country": "Australia",
    "Coordinates": {
      "Latitude": -36.9113,
      "Longitude": 149.2379,
      "Elevation": 705
    },
    "WarmingAnomaly": 0.8738528528528597,
    "HeatingScore": 2,
    "Id": "7047a5dd-6e6c-4a7a-a6da-dee472185bf2",
    "Name": "Bombala Therry Street"
  },
  {
    "CountryCode": "IN",
    "Country": "India",
    "Coordinates": {
      "Latitude": 18.9,
      "Longitude": 72.8167,
      "Elevation": 11
    },
    "WarmingAnomaly": 0.43412698412696926,
    "HeatingScore": 0,
    "Id": "483a3d5e-9d84-4e1f-bf73-e223d42371fa",
    "Name": "Bombay Colaba"
  },
  {
    "CountryCode": "RS",
    "Country": "Russia",
    "Coordinates": {
      "Latitude": 54.7167,
      "Longitude": 128.8667,
      "Elevation": 365
    },
    "WarmingAnomaly": 1.74852564102564,
    "HeatingScore": 8,
    "Id": "01500bb8-2e55-4d99-affa-56987708db79",
    "Name": "Bomnak"
  },
  {
    "CountryCode": "RS",
    "Country": "Russia",
    "Coordinates": {
      "Latitude": 61.6,
      "Longitude": 90.0167,
      "Elevation": 62
    },
    "WarmingAnomaly": 1.4425315656565643,
    "HeatingScore": 6,
    "Id": "44365a47-e875-4e76-8589-81f4c267d60d",
    "Name": "Bor"
  },
  {
    "CountryCode": "FP",
    "Country": "French Polynesia",
    "Coordinates": {
      "Latitude": -16.45,
      "Longitude": -151.75,
      "Elevation": 3
    },
    "Id": "d0d3a354-2e6c-4428-9587-7eb1e86f330e",
    "Name": "Bora Bora Motu Mute"
  },
  {
    "CountryCode": "SW",
    "Country": "Sweden",
    "Coordinates": {
      "Latitude": 57.76,
      "Longitude": 12.95,
      "Elevation": 135
    },
    "WarmingAnomaly": 1.57269934640523,
    "HeatingScore": 7,
    "Id": "e44850f3-7065-4421-9b9f-1ad04d30c9d4",
    "Name": "Boras"
  },
  {
    "CountryCode": "UV",
    "Country": "Burkina Faso",
    "Coordinates": {
      "Latitude": 11.75,
      "Longitude": -2.933,
      "Elevation": 271
    },
    "Id": "43a0e1ec-a479-4f89-a989-6edf1f0e236f",
    "Name": "Boromo"
  },
  {
    "CountryCode": "RS",
    "Country": "Russia",
    "Coordinates": {
      "Latitude": 50.4,
      "Longitude": 116.5167,
      "Elevation": 675
    },
    "WarmingAnomaly": 2.1934598765432103,
    "HeatingScore": 9,
    "Id": "8cea11e6-9ee5-4d24-80d0-9857b49608e7",
    "Name": "Borzja"
  },
  {
    "CountryCode": "RO",
    "Country": "Romania",
    "Coordinates": {
      "Latitude": 47.68,
      "Longitude": 26.67,
      "Elevation": 161
    },
    "WarmingAnomaly": 1.1785913978494644,
    "HeatingScore": 4,
    "Id": "8a97f526-7f72-49e9-a9da-2b7a44309e1e",
    "Name": "Botosani"
  },
  {
    "CountryCode": "US",
    "Country": "United States of America",
    "Coordinates": {
      "Latitude": 48.8217,
      "Longitude": -100.4525,
      "Elevation": 493.5
    },
    "WarmingAnomaly": 1.1989548611111105,
    "HeatingScore": 5,
    "Id": "b92d58e5-0250-4570-b3d3-f73a6157c811",
    "Name": "Bottineau"
  },
  {
    "CountryCode": "IV",
    "Country": "Cote D\u0027Ivoire",
    "Coordinates": {
      "Latitude": 7.68,
      "Longitude": -5.03,
      "Elevation": 369
    },
    "Id": "9625ce08-c030-446c-83a1-a7193653ead1",
    "Name": "Bouake"
  },
  {
    "CountryCode": "CT",
    "Country": "Central African Republic",
    "Coordinates": {
      "Latitude": 5.967,
      "Longitude": 15.633,
      "Elevation": 1020
    },
    "Id": "6e5f3434-ef9b-4b38-9f0a-f6207db2637e",
    "Name": "Bouar"
  },
  {
    "CountryCode": "AS",
    "Country": "Australia",
    "Coordinates": {
      "Latitude": -22.91,
      "Longitude": 139.9,
      "Elevation": 161
    },
    "WarmingAnomaly": 0.8537656303133048,
    "HeatingScore": 2,
    "Id": "f285ba2b-d6d6-4390-a80f-803522668bde",
    "Name": "Boulia"
  },
  {
    "CountryCode": "FR",
    "Country": "France",
    "Coordinates": {
      "Latitude": 47.0667,
      "Longitude": 2.3667,
      "Elevation": 161
    },
    "WarmingAnomaly": 1.6433288530465937,
    "HeatingScore": 8,
    "Id": "e3c1f551-3ee7-420b-b22d-f14ee754764d",
    "Name": "Bourges Aerodrome"
  },
  {
    "CountryCode": "AS",
    "Country": "Australia",
    "Coordinates": {
      "Latitude": -30.04,
      "Longitude": 145.95,
      "Elevation": 107
    },
    "WarmingAnomaly": 0.7435611025194078,
    "HeatingScore": 1,
    "Id": "bab198bd-3940-4f13-a4f7-68af10735039",
    "Name": "Bourke"
  },
  {
    "CountryCode": "UK",
    "Country": "United Kingdom",
    "Coordinates": {
      "Latitude": 50.78,
      "Longitude": -1.843,
      "Elevation": 11.6
    },
    "WarmingAnomaly": 0.8680590277777789,
    "HeatingScore": 2,
    "Id": "1b011828-604b-4539-923e-680adf085beb",
    "Name": "Bournemouth"
  },
  {
    "CountryCode": "CH",
    "Country": "China",
    "Coordinates": {
      "Latitude": 33.883,
      "Longitude": 115.767,
      "Elevation": 42
    },
    "WarmingAnomaly": 1.3986515151515206,
    "HeatingScore": 6,
    "Id": "6c1f72a0-ae51-4f05-8b22-6e9cf4dfe13a",
    "Name": "Boxian"
  },
  {
    "CountryCode": "US",
    "Country": "United States of America",
    "Coordinates": {
      "Latitude": 45.6622,
      "Longitude": -111.0453,
      "Elevation": 1497.5
    },
    "WarmingAnomaly": 1.8496128472222244,
    "HeatingScore": 9,
    "Id": "b40c62d1-c681-4320-a4b4-5df59e80ab13",
    "Name": "Bozeman Montana St U"
  },
  {
    "CountryCode": "PO",
    "Country": "Portugal",
    "Coordinates": {
      "Latitude": 41.8,
      "Longitude": -6.7331,
      "Elevation": 690
    },
    "WarmingAnomaly": 0.7226403508771941,
    "HeatingScore": 1,
    "Id": "06d2ae90-d9a8-43bc-968a-d575bd4b4607",
    "Name": "Braganca"
  },
  {
    "CountryCode": "CA",
    "Country": "Canada",
    "Coordinates": {
      "Latitude": 49.9167,
      "Longitude": -99.95,
      "Elevation": 409
    },
    "WarmingAnomaly": 1.514565972222223,
    "HeatingScore": 7,
    "Id": "2996f037-9df2-4a10-9260-9bbbf16d20b4",
    "Name": "Brandon A"
  },
  {
    "CountryCode": "RS",
    "Country": "Russia",
    "Coordinates": {
      "Latitude": 56.28,
      "Longitude": 101.75,
      "Elevation": 411
    },
    "WarmingAnomaly": 2.2830882936507937,
    "HeatingScore": 9,
    "Id": "059dd3b7-721a-4285-b23e-a060158c9781",
    "Name": "Bratsk"
  },
  {
    "CountryCode": "CF",
    "Country": "Congo (Brazzaville)",
    "Coordinates": {
      "Latitude": -4.25,
      "Longitude": 15.25,
      "Elevation": 314
    },
    "WarmingAnomaly": 0.7504926900584756,
    "HeatingScore": 1,
    "Id": "8144d824-5928-442d-9693-10e0c559b419",
    "Name": "Brazzaville"
  },
  {
    "CountryCode": "RS",
    "Country": "Russia",
    "Coordinates": {
      "Latitude": 52.43,
      "Longitude": 60.35,
      "Elevation": 309
    },
    "WarmingAnomaly": 1.313134615384616,
    "HeatingScore": 5,
    "Id": "cc75ac8b-03b7-4eb1-8825-d22fbb32f6d5",
    "Name": "Bredy"
  },
  {
    "CountryCode": "GM",
    "Country": "Germany",
    "Coordinates": {
      "Latitude": 53.0464,
      "Longitude": 8.7992,
      "Elevation": 4
    },
    "WarmingAnomaly": 2.1389072039072,
    "HeatingScore": 9,
    "Id": "fedde825-4561-4b8a-8ea3-3f9686f49710",
    "Name": "Bremen"
  },
  {
    "CountryCode": "US",
    "Country": "United States of America",
    "Coordinates": {
      "Latitude": 30.1592,
      "Longitude": -96.3972,
      "Elevation": 95.4
    },
    "WarmingAnomaly": 0.7470032051281983,
    "HeatingScore": 1,
    "Id": "314f12a3-a9d1-4b83-9349-6b8c71d90b2f",
    "Name": "Brenham"
  },
  {
    "CountryCode": "BO",
    "Country": "Belarus",
    "Coordinates": {
      "Latitude": 52.1167,
      "Longitude": 23.6831,
      "Elevation": 146
    },
    "WarmingAnomaly": 1.6350486111111104,
    "HeatingScore": 8,
    "Id": "f630bbc3-cfdf-4043-b503-040690830430",
    "Name": "Brest"
  },
  {
    "CountryCode": "AS",
    "Country": "Australia",
    "Coordinates": {
      "Latitude": -29.9614,
      "Longitude": 146.8651,
      "Elevation": 115
    },
    "WarmingAnomaly": -0.19141666666667234,
    "HeatingScore": 0,
    "Id": "a1a1c30d-c58b-41ab-a0c0-6ae19c9b829c",
    "Name": "Brewarrina Hospital"
  },
  {
    "CountryCode": "AS",
    "Country": "Australia",
    "Coordinates": {
      "Latitude": -33.95,
      "Longitude": 116.13,
      "Elevation": 178
    },
    "WarmingAnomaly": 0.8763422381543329,
    "HeatingScore": 2,
    "Id": "9ea5be14-0e54-4453-8e8b-4c11e075cb42",
    "Name": "Bridgetown"
  },
  {
    "CountryCode": "IT",
    "Country": "Italy",
    "Coordinates": {
      "Latitude": 40.6331,
      "Longitude": 17.9331,
      "Elevation": 10
    },
    "WarmingAnomaly": 1.2838194444444468,
    "HeatingScore": 5,
    "Id": "3cb6bbfb-0909-4a22-9dd7-40b764c6c3f6",
    "Name": "Brindisi"
  },
  {
    "CountryCode": "AS",
    "Country": "Australia",
    "Coordinates": {
      "Latitude": -27.39,
      "Longitude": 153.13,
      "Elevation": 4
    },
    "WarmingAnomaly": 0.47296614593345865,
    "HeatingScore": 0,
    "Id": "b7e0c061-e71c-4fc4-8068-c0432398c24f",
    "Name": "Brisbane Airport"
  },
  {
    "CountryCode": "RS",
    "Country": "Russia",
    "Coordinates": {
      "Latitude": 53.33,
      "Longitude": 34.2297,
      "Elevation": 162
    },
    "WarmingAnomaly": 1.5282942942942936,
    "HeatingScore": 7,
    "Id": "386be017-6253-4327-a264-81a8d4eb4e2e",
    "Name": "Brjansk"
  },
  {
    "CountryCode": "US",
    "Country": "United States of America",
    "Coordinates": {
      "Latitude": 45.4442,
      "Longitude": -105.4072,
      "Elevation": 924.2
    },
    "WarmingAnomaly": 0.9661307189542452,
    "HeatingScore": 3,
    "Id": "fab430f9-be42-42f7-a7aa-1c6c21769d60",
    "Name": "Broadus"
  },
  {
    "CountryCode": "GM",
    "Country": "Germany",
    "Coordinates": {
      "Latitude": 51.8,
      "Longitude": 10.62,
      "Elevation": 1142
    },
    "WarmingAnomaly": 1.488919354838711,
    "HeatingScore": 7,
    "Id": "6fc1e7d9-0eaa-4e1f-b147-6d9a4888a324",
    "Name": "Brocken"
  },
  {
    "CountryCode": "RS",
    "Country": "Russia",
    "Coordinates": {
      "Latitude": 59.65,
      "Longitude": 154.27,
      "Elevation": 7
    },
    "WarmingAnomaly": 1.0345511695906433,
    "HeatingScore": 3,
    "Id": "36877868-cd16-46cc-b43f-5eb2448cb37d",
    "Name": "Brohovo"
  },
  {
    "CountryCode": "AS",
    "Country": "Australia",
    "Coordinates": {
      "Latitude": -31.9759,
      "Longitude": 141.4676,
      "Elevation": 315
    },
    "WarmingAnomaly": 0.7805,
    "HeatingScore": 2,
    "Id": "60f97f64-5e2e-4beb-9e55-2ff391172531",
    "Name": "Broken Hill Patton Street"
  },
  {
    "CountryCode": "FR",
    "Country": "France",
    "Coordinates": {
      "Latitude": 45.7231,
      "Longitude": 4.9367,
      "Elevation": 198
    },
    "WarmingAnomaly": 1.831888888888889,
    "HeatingScore": 9,
    "Id": "573fd15e-57fe-4424-822e-482b177fb960",
    "Name": "Bron Lyon Aeroport"
  },
  {
    "CountryCode": "AS",
    "Country": "Australia",
    "Coordinates": {
      "Latitude": -17.95,
      "Longitude": 122.24,
      "Elevation": 7
    },
    "WarmingAnomaly": 0.5332690488470782,
    "HeatingScore": 0,
    "Id": "05daa0ea-6227-4225-bf52-8204808709b5",
    "Name": "Broome"
  },
  {
    "CountryCode": "US",
    "Country": "United States of America",
    "Coordinates": {
      "Latitude": 25.9156,
      "Longitude": -97.4186,
      "Elevation": 7
    },
    "WarmingAnomaly": 1.2000972222222153,
    "HeatingScore": 5,
    "Id": "7b29a36a-c008-45be-b54b-ae4d139e1065",
    "Name": "Brownsville"
  },
  {
    "CountryCode": "BX",
    "Country": "Brunei",
    "Coordinates": {
      "Latitude": 4.944,
      "Longitude": 114.928,
      "Elevation": 22.3
    },
    "Id": "0fb8a3d0-8eaa-474a-9eb4-8a608610c6c2",
    "Name": "Brunei Intl"
  },
  {
    "CountryCode": "US",
    "Country": "United States of America",
    "Coordinates": {
      "Latitude": 31.1522,
      "Longitude": -81.3908,
      "Elevation": 4.9
    },
    "WarmingAnomaly": 1.2892142857142872,
    "HeatingScore": 5,
    "Id": "1a6a2d91-cd20-446e-a474-45cf90ca0dfe",
    "Name": "Brunswick Malcolm Mckinnon Ap"
  },
  {
    "CountryCode": "RO",
    "Country": "Romania",
    "Coordinates": {
      "Latitude": 44.5167,
      "Longitude": 26.0831,
      "Elevation": 90
    },
    "WarmingAnomaly": 1.8856425120772968,
    "HeatingScore": 9,
    "Id": "dbb788e8-8fe9-4831-b3da-64554323b432",
    "Name": "Bucuresti Baneasa"
  },
  {
    "CountryCode": "HU",
    "Country": "Hungary",
    "Coordinates": {
      "Latitude": 47.433,
      "Longitude": 19.183,
      "Elevation": 139
    },
    "WarmingAnomaly": 1.6443497267759568,
    "HeatingScore": 8,
    "Id": "916eb21b-39bd-48f3-973c-ee543448a300",
    "Name": "Budapest Pestszentlorinc"
  },
  {
    "CountryCode": "RS",
    "Country": "Russia",
    "Coordinates": {
      "Latitude": 44.8,
      "Longitude": 44.1,
      "Elevation": 136
    },
    "WarmingAnomaly": 1.5085568181818196,
    "HeatingScore": 7,
    "Id": "54ae2c45-a8e4-4755-af1d-83dce8457385",
    "Name": "Budennovsk"
  },
  {
    "CountryCode": "AR",
    "Country": "Argentina",
    "Coordinates": {
      "Latitude": -34.583,
      "Longitude": -58.483,
      "Elevation": 25
    },
    "WarmingAnomaly": 2.007736291486289,
    "HeatingScore": 9,
    "Id": "2d978425-ab90-49f8-a03f-9ff34472596d",
    "Name": "Buenos Aires Observ"
  },
  {
    "CountryCode": "CH",
    "Country": "China",
    "Coordinates": {
      "Latitude": 48.767,
      "Longitude": 121.917,
      "Elevation": 739
    },
    "WarmingAnomaly": 1.3412750677506775,
    "HeatingScore": 6,
    "Id": "0c8eb259-3702-41f7-9ad6-32436a93fbd6",
    "Name": "Bugt"
  },
  {
    "CountryCode": "RS",
    "Country": "Russia",
    "Coordinates": {
      "Latitude": 69.62,
      "Longitude": 162.3,
      "Elevation": 24
    },
    "WarmingAnomaly": 1.3526269841269887,
    "HeatingScore": 6,
    "Id": "6ddae8d6-4dc6-4ef4-a410-e9ce429b07de",
    "Name": "Buhta Ambarcik"
  },
  {
    "CountryCode": "ZI",
    "Country": "Zimbabwe",
    "Coordinates": {
      "Latitude": -20.15,
      "Longitude": 28.617,
      "Elevation": 1344
    },
    "WarmingAnomaly": -0.23003156565656013,
    "HeatingScore": 0,
    "Id": "3de018bd-383c-47fe-abdb-2421b82b18cb",
    "Name": "Bulawayo Goetz Obs"
  },
  {
    "CountryCode": "MG",
    "Country": "Mongolia",
    "Coordinates": {
      "Latitude": 48.8,
      "Longitude": 103.55,
      "Elevation": 1208
    },
    "WarmingAnomaly": 1.8547894736842105,
    "HeatingScore": 9,
    "Id": "00d899f5-b002-4b34-bb2c-2f436ccb5da4",
    "Name": "Bulgan"
  },
  {
    "CountryCode": "AS",
    "Country": "Australia",
    "Coordinates": {
      "Latitude": -24.91,
      "Longitude": 152.32,
      "Elevation": 30
    },
    "WarmingAnomaly": 0.9698509833929485,
    "HeatingScore": 3,
    "Id": "b2c819cd-b20b-48b0-8148-eef2f8fd88b7",
    "Name": "Bundaberg"
  },
  {
    "CountryCode": "SP",
    "Country": "Spain",
    "Coordinates": {
      "Latitude": 42.3558,
      "Longitude": -3.6325,
      "Elevation": 890
    },
    "WarmingAnomaly": 1.7525995370370424,
    "HeatingScore": 8,
    "Id": "e9605e57-fdfd-4173-af4d-b26b45eacb92",
    "Name": "Burgos Villafria"
  },
  {
    "CountryCode": "AS",
    "Country": "Australia",
    "Coordinates": {
      "Latitude": -17.75,
      "Longitude": 139.54,
      "Elevation": 5
    },
    "WarmingAnomaly": 1.1251616758050957,
    "HeatingScore": 4,
    "Id": "fba7ed39-c752-460d-aa2e-342da7b55817",
    "Name": "Burketown"
  },
  {
    "CountryCode": "TU",
    "Country": "Turkey",
    "Coordinates": {
      "Latitude": 40.183,
      "Longitude": 29.067,
      "Elevation": 100
    },
    "WarmingAnomaly": 1.0821825396825382,
    "HeatingScore": 4,
    "Id": "21651d36-9f18-4470-a4b5-ac9f4452b420",
    "Name": "Bursa"
  },
  {
    "CountryCode": "KS",
    "Country": "Korea, South",
    "Coordinates": {
      "Latitude": 35.1,
      "Longitude": 129.033,
      "Elevation": 70
    },
    "WarmingAnomaly": 1.4528207070707122,
    "HeatingScore": 7,
    "Id": "7ccfcdf9-cecc-42a1-87c5-7a4a187447ea",
    "Name": "Busan"
  },
  {
    "CountryCode": "IR",
    "Country": "Iran",
    "Coordinates": {
      "Latitude": 28.95,
      "Longitude": 50.85,
      "Elevation": 8
    },
    "WarmingAnomaly": 0.9633952991452972,
    "HeatingScore": 3,
    "Id": "235047c4-4b6e-45b3-b30a-1f11738405c7",
    "Name": "Bushehr"
  },
  {
    "CountryCode": "AS",
    "Country": "Australia",
    "Coordinates": {
      "Latitude": -42.28,
      "Longitude": 146.28,
      "Elevation": 667
    },
    "Id": "5f6f3d62-4c80-441d-b30f-104d2f5d2e96",
    "Name": "Butlers Gorge"
  },
  {
    "CountryCode": "RO",
    "Country": "Romania",
    "Coordinates": {
      "Latitude": 45.1331,
      "Longitude": 26.85,
      "Elevation": 97
    },
    "WarmingAnomaly": 1.2318650793650807,
    "HeatingScore": 5,
    "Id": "7b76053f-c4da-49f6-8152-f7c5decb6147",
    "Name": "Buzau"
  },
  {
    "CountryCode": "UZ",
    "Country": "Uzbekistan",
    "Coordinates": {
      "Latitude": 41.75,
      "Longitude": 62.467,
      "Elevation": 98
    },
    "WarmingAnomaly": 0.9359545454545479,
    "HeatingScore": 3,
    "Id": "2f396bef-54c9-4aa2-9540-85c3e04b695d",
    "Name": "Buzaubaj"
  },
  {
    "CountryCode": "CU",
    "Country": "Cuba",
    "Coordinates": {
      "Latitude": 21.867,
      "Longitude": -84.95,
      "Elevation": 8
    },
    "Id": "29425d0e-9673-481e-9f82-2495ad079063",
    "Name": "Cabo San Antoniopinar Del"
  },
  {
    "CountryCode": "AS",
    "Country": "Australia",
    "Coordinates": {
      "Latitude": -35.94,
      "Longitude": 148.38,
      "Elevation": 1482
    },
    "Id": "f7a20e98-23e9-4920-be3c-b72f8a22754d",
    "Name": "Cabramurra"
  },
  {
    "CountryCode": "SP",
    "Country": "Spain",
    "Coordinates": {
      "Latitude": 36.5008,
      "Longitude": -6.2567,
      "Elevation": 1
    },
    "WarmingAnomaly": 1.514992424242422,
    "HeatingScore": 7,
    "Id": "717b9cc5-d587-4539-b891-70f7d7651396",
    "Name": "Cadiz"
  },
  {
    "CountryCode": "IT",
    "Country": "Italy",
    "Coordinates": {
      "Latitude": 39.2331,
      "Longitude": 9.05,
      "Elevation": 21
    },
    "WarmingAnomaly": 1.035189393939394,
    "HeatingScore": 3,
    "Id": "20415ba1-6c4a-4477-9ab8-7a97e01c1925",
    "Name": "Cagliari"
  },
  {
    "CountryCode": "AS",
    "Country": "Australia",
    "Coordinates": {
      "Latitude": -16.87,
      "Longitude": 145.75,
      "Elevation": 2
    },
    "WarmingAnomaly": 0.9051603658402954,
    "HeatingScore": 2,
    "Id": "8fe98f5f-c239-4f2f-961a-5686147e53f7",
    "Name": "Cairns"
  },
  {
    "CountryCode": "RS",
    "Country": "Russia",
    "Coordinates": {
      "Latitude": 50.43,
      "Longitude": 103.6,
      "Elevation": 984
    },
    "WarmingAnomaly": 1.1373194444444445,
    "HeatingScore": 4,
    "Id": "26e7a112-5aad-45f6-b367-a0927c7d74a3",
    "Name": "Cakir"
  },
  {
    "CountryCode": "RO",
    "Country": "Romania",
    "Coordinates": {
      "Latitude": 44.2,
      "Longitude": 27.3331,
      "Elevation": 19
    },
    "WarmingAnomaly": 1.442064327485376,
    "HeatingScore": 6,
    "Id": "aba6c9dc-ea95-467c-96e9-2cd16620d2be",
    "Name": "Calarasi"
  },
  {
    "CountryCode": "IN",
    "Country": "India",
    "Coordinates": {
      "Latitude": 22.533,
      "Longitude": 88.333,
      "Elevation": 6
    },
    "WarmingAnomaly": 0.5249613220815803,
    "HeatingScore": 0,
    "Id": "13059658-e52f-437b-bb7b-3cc021e0f895",
    "Name": "Calcutta Alipore"
  },
  {
    "CountryCode": "CO",
    "Country": "Colombia",
    "Coordinates": {
      "Latitude": 3.55,
      "Longitude": -76.383,
      "Elevation": 969
    },
    "Id": "13908644-7d62-427d-9426-e2286a56ff02",
    "Name": "Cali Alfonso Bonill"
  },
  {
    "CountryCode": "CA",
    "Country": "Canada",
    "Coordinates": {
      "Latitude": 69.1,
      "Longitude": -105.1333,
      "Elevation": 31
    },
    "WarmingAnomaly": 1.9020726495726432,
    "HeatingScore": 9,
    "Id": "e33ab971-c2e2-4ae8-b89b-64fae04e79fc",
    "Name": "Cambridge Bay A"
  },
  {
    "CountryCode": "AS",
    "Country": "Australia",
    "Coordinates": {
      "Latitude": -19.92,
      "Longitude": 138.12,
      "Elevation": 231
    },
    "Id": "09a5ba01-f523-4be3-ae7b-7a29a0da581c",
    "Name": "Camooweal"
  },
  {
    "CountryCode": "NZ",
    "Country": "New Zealand",
    "Coordinates": {
      "Latitude": -52.55,
      "Longitude": 169.167,
      "Elevation": 19
    },
    "WarmingAnomaly": -0.20767735042735147,
    "HeatingScore": 0,
    "Id": "448febb4-7259-454b-89e5-655971d57d91",
    "Name": "Campbell Island Aws"
  },
  {
    "CountryCode": "BR",
    "Country": "Brazil",
    "Coordinates": {
      "Latitude": -23,
      "Longitude": -47.133,
      "Elevation": 661
    },
    "WarmingAnomaly": 0.8927864583333331,
    "HeatingScore": 2,
    "Id": "1fbc0474-777a-4e72-bfdd-6462bfd18c44",
    "Name": "Campinas Aeroporto"
  },
  {
    "CountryCode": "FR",
    "Country": "France",
    "Coordinates": {
      "Latitude": 41.924,
      "Longitude": 8.803,
      "Elevation": 5.5
    },
    "WarmingAnomaly": 1.3279523809523734,
    "HeatingScore": 6,
    "Id": "6ebf3409-9ada-470b-98db-ceaf30d79c16",
    "Name": "Campo Dell Oro"
  },
  {
    "CountryCode": "CA",
    "Country": "Canada",
    "Coordinates": {
      "Latitude": 53.0333,
      "Longitude": -112.8167,
      "Elevation": 739
    },
    "WarmingAnomaly": 1.3276792929292924,
    "HeatingScore": 6,
    "Id": "614568c1-80af-484f-922e-e18055c5cc0c",
    "Name": "Camrose"
  },
  {
    "CountryCode": "TU",
    "Country": "Turkey",
    "Coordinates": {
      "Latitude": 40.138,
      "Longitude": 26.427,
      "Elevation": 7
    },
    "WarmingAnomaly": 0.9666904761904789,
    "HeatingScore": 3,
    "Id": "38c70e61-5053-4390-97dc-fadf3ad2eb98",
    "Name": "Canakkale"
  },
  {
    "CountryCode": "EC",
    "Country": "Ecuador",
    "Coordinates": {
      "Latitude": -2.55,
      "Longitude": -78.933,
      "Elevation": 3083
    },
    "Id": "d045c203-a6ce-410e-99bf-c7570050851d",
    "Name": "Canar"
  },
  {
    "CountryCode": "AS",
    "Country": "Australia",
    "Coordinates": {
      "Latitude": -35.31,
      "Longitude": 149.2,
      "Elevation": 577
    },
    "WarmingAnomaly": 1.456536495450404,
    "HeatingScore": 7,
    "Id": "c0f2743b-fb00-4128-9024-bafa4e1c85ed",
    "Name": "Canberra"
  },
  {
    "CountryCode": "AS",
    "Country": "Australia",
    "Coordinates": {
      "Latitude": -35.75,
      "Longitude": 136.6,
      "Elevation": 158
    },
    "Id": "f1be5e90-f9fd-40f4-9db8-2c5564a7e908",
    "Name": "Cape Borda"
  },
  {
    "CountryCode": "AS",
    "Country": "Australia",
    "Coordinates": {
      "Latitude": -43.49,
      "Longitude": 147.14,
      "Elevation": 60
    },
    "WarmingAnomaly": 0.9827904264685063,
    "HeatingScore": 3,
    "Id": "eb75b5eb-8feb-4118-b6ab-bbe9b4fbc334",
    "Name": "Cape Bruny"
  },
  {
    "CountryCode": "US",
    "Country": "United States of America",
    "Coordinates": {
      "Latitude": 35.2325,
      "Longitude": -75.6219,
      "Elevation": 3.4
    },
    "WarmingAnomaly": 0.6693796296296277,
    "HeatingScore": 1,
    "Id": "0a673aa6-2f9b-451c-b0c8-808f4bbcd07a",
    "Name": "Cape Hatteras Ap"
  },
  {
    "CountryCode": "RS",
    "Country": "Russia",
    "Coordinates": {
      "Latitude": 73.333,
      "Longitude": 139.917,
      "Elevation": 26
    },
    "WarmingAnomaly": 0.9852777777777781,
    "HeatingScore": 3,
    "Id": "0ede5a46-979a-41d5-b6ff-5576d4d67afc",
    "Name": "Cape Kigilyakh"
  },
  {
    "CountryCode": "AS",
    "Country": "Australia",
    "Coordinates": {
      "Latitude": -34.37,
      "Longitude": 115.14,
      "Elevation": 13
    },
    "WarmingAnomaly": 0.8935897972357303,
    "HeatingScore": 2,
    "Id": "f8dfe45b-d49c-4c0f-8d69-27d2d92cdb4b",
    "Name": "Cape Leeuwin"
  },
  {
    "CountryCode": "AS",
    "Country": "Australia",
    "Coordinates": {
      "Latitude": -27.03,
      "Longitude": 153.47,
      "Elevation": 99
    },
    "WarmingAnomaly": 0.8194960987089139,
    "HeatingScore": 2,
    "Id": "33d2cd26-bded-4abc-8e03-2f3266e3923f",
    "Name": "Cape Moreton"
  },
  {
    "CountryCode": "AS",
    "Country": "Australia",
    "Coordinates": {
      "Latitude": -33.5372,
      "Longitude": 115.0189,
      "Elevation": 109
    },
    "WarmingAnomaly": 0.8887431865828077,
    "HeatingScore": 2,
    "Id": "4af87fab-cf88-42f0-ac40-71d23e65413e",
    "Name": "Cape Naturaliste"
  },
  {
    "CountryCode": "AS",
    "Country": "Australia",
    "Coordinates": {
      "Latitude": -38.86,
      "Longitude": 143.51,
      "Elevation": 82
    },
    "WarmingAnomaly": 0.7137375812632989,
    "HeatingScore": 1,
    "Id": "592c8e33-cc36-4cce-9af1-82bb3f26a5af",
    "Name": "Cape Otway"
  },
  {
    "CountryCode": "IT",
    "Country": "Italy",
    "Coordinates": {
      "Latitude": 40.017,
      "Longitude": 15.283,
      "Elevation": 185
    },
    "WarmingAnomaly": 0.9728709677419367,
    "HeatingScore": 3,
    "Id": "beb2a527-3bb3-41cc-8042-db72475ea0e4",
    "Name": "Cape Palinuro"
  },
  {
    "CountryCode": "AS",
    "Country": "Australia",
    "Coordinates": {
      "Latitude": -42.1986,
      "Longitude": 145.17,
      "Elevation": 19.3
    },
    "WarmingAnomaly": 0.14216666666666633,
    "HeatingScore": 0,
    "Id": "28a921f5-50fc-4bd2-a94b-ab0e669889b8",
    "Name": "Cape Sorell"
  },
  {
    "CountryCode": "SF",
    "Country": "South Africa",
    "Coordinates": {
      "Latitude": -33.965,
      "Longitude": 18.602,
      "Elevation": 46
    },
    "WarmingAnomaly": 0.8272254901960814,
    "HeatingScore": 2,
    "Id": "31811be5-dc94-421c-bba9-9e92c53202e7",
    "Name": "Cape Town Intl"
  },
  {
    "CountryCode": "IT",
    "Country": "Italy",
    "Coordinates": {
      "Latitude": 39.93,
      "Longitude": 9.72,
      "Elevation": 138
    },
    "WarmingAnomaly": 0.9904570707070697,
    "HeatingScore": 3,
    "Id": "872cc9e6-7006-471f-92d0-d6fe281e2428",
    "Name": "Capo Bellavista"
  },
  {
    "CountryCode": "RO",
    "Country": "Romania",
    "Coordinates": {
      "Latitude": 45.42,
      "Longitude": 22.25,
      "Elevation": 241
    },
    "WarmingAnomaly": 1.4636030465949847,
    "HeatingScore": 7,
    "Id": "6cb9c472-7d33-428b-914a-45051a8be2b8",
    "Name": "Caransebes"
  },
  {
    "CountryCode": "AS",
    "Country": "Australia",
    "Coordinates": {
      "Latitude": -18.2553,
      "Longitude": 146.0197,
      "Elevation": 4.5
    },
    "WarmingAnomaly": 0.4792970085470003,
    "HeatingScore": 0,
    "Id": "d73376c4-6879-4198-9a4e-9570dfec7843",
    "Name": "Cardwell Marine Pde"
  },
  {
    "CountryCode": "AS",
    "Country": "Australia",
    "Coordinates": {
      "Latitude": -24.89,
      "Longitude": 113.67,
      "Elevation": 4
    },
    "WarmingAnomaly": 0.8751889591076782,
    "HeatingScore": 2,
    "Id": "1c72f3e1-7d98-4ac5-8b64-1b5b2a4d599e",
    "Name": "Carnarvon"
  },
  {
    "CountryCode": "UY",
    "Country": "Uruguay",
    "Coordinates": {
      "Latitude": -34.838,
      "Longitude": -56.031,
      "Elevation": 32
    },
    "WarmingAnomaly": 0.5415473856209125,
    "HeatingScore": 0,
    "Id": "9867e7a1-9073-4159-88ad-8debeb9ebaee",
    "Name": "Carrasco Intl"
  },
  {
    "CountryCode": "TS",
    "Country": "Tunisia",
    "Coordinates": {
      "Latitude": 36.851,
      "Longitude": 10.227,
      "Elevation": 6.7
    },
    "WarmingAnomaly": 1.109480083857438,
    "HeatingScore": 4,
    "Id": "9d5ab43e-7ca1-470e-809c-ff3e1a794587",
    "Name": "Carthage"
  },
  {
    "CountryCode": "CA",
    "Country": "Canada",
    "Coordinates": {
      "Latitude": 53.7167,
      "Longitude": -57.0333,
      "Elevation": 14
    },
    "WarmingAnomaly": 0.5175833333333334,
    "HeatingScore": 0,
    "Id": "c5fa8963-7556-4fdd-8224-feb205b084b4",
    "Name": "Cartwright"
  },
  {
    "CountryCode": "CU",
    "Country": "Cuba",
    "Coordinates": {
      "Latitude": 23.167,
      "Longitude": -82.35,
      "Elevation": 50
    },
    "WarmingAnomaly": 1.1264949494949406,
    "HeatingScore": 4,
    "Id": "7e07991e-805a-4a11-9896-26538ba1925e",
    "Name": "Casa Blancala Habana"
  },
  {
    "CountryCode": "AY",
    "Country": "Antarctica",
    "Coordinates": {
      "Latitude": -66.283,
      "Longitude": 110.517,
      "Elevation": 41
    },
    "WarmingAnomaly": -0.18407258064516085,
    "HeatingScore": 0,
    "Id": "5fd8efb6-c019-4ab1-8471-0fb223c4b88b",
    "Name": "Casey"
  },
  {
    "CountryCode": "US",
    "Country": "United States of America",
    "Coordinates": {
      "Latitude": 42.8975,
      "Longitude": -106.4636,
      "Elevation": 1627
    },
    "WarmingAnomaly": 0.8780891812865512,
    "HeatingScore": 2,
    "Id": "0c7fd1d5-40d3-4763-b5d8-6c7e5e392d4f",
    "Name": "Casper Natrona Co Ap"
  },
  {
    "CountryCode": "AS",
    "Country": "Australia",
    "Coordinates": {
      "Latitude": -32.13,
      "Longitude": 133.7,
      "Elevation": 15
    },
    "WarmingAnomaly": 1.0656125959679343,
    "HeatingScore": 3,
    "Id": "4397371d-a43b-4925-af58-bec79e6ca802",
    "Name": "Ceduna"
  },
  {
    "CountryCode": "RS",
    "Country": "Russia",
    "Coordinates": {
      "Latitude": 50.8667,
      "Longitude": 132.25,
      "Elevation": 271
    },
    "WarmingAnomaly": 1.605400793650794,
    "HeatingScore": 8,
    "Id": "ba19606c-02d0-4a4b-a3f5-e151d7fc7202",
    "Name": "Cekunda"
  },
  {
    "CountryCode": "US",
    "Country": "United States of America",
    "Coordinates": {
      "Latitude": 31.8075,
      "Longitude": -94.1642,
      "Elevation": 99.1
    },
    "WarmingAnomaly": 0.5720883838383841,
    "HeatingScore": 0,
    "Id": "5382cac3-97a9-4465-9e4a-a80d497ac54b",
    "Name": "Center"
  },
  {
    "CountryCode": "US",
    "Country": "United States of America",
    "Coordinates": {
      "Latitude": 31.2581,
      "Longitude": -95.9744,
      "Elevation": 97.5
    },
    "WarmingAnomaly": 0.7187777777777811,
    "HeatingScore": 1,
    "Id": "2630bb2b-e59f-4c0f-8d05-1addedb22693",
    "Name": "Centerville"
  },
  {
    "CountryCode": "UK",
    "Country": "United Kingdom",
    "Coordinates": {
      "Latitude": 52.42,
      "Longitude": -1.83,
      "Elevation": 78
    },
    "WarmingAnomaly": 1.3406807081807095,
    "HeatingScore": 6,
    "Id": "a5a179b5-5394-44d1-b653-bbf6b052279c",
    "Name": "Central England"
  },
  {
    "CountryCode": "RS",
    "Country": "Russia",
    "Coordinates": {
      "Latitude": 59.25,
      "Longitude": 37.967,
      "Elevation": 114
    },
    "WarmingAnomaly": 1.2587777777777776,
    "HeatingScore": 5,
    "Id": "ebbbe886-5029-4763-a7c4-2e8ec27a7843",
    "Name": "Cerepovec"
  },
  {
    "CountryCode": "AR",
    "Country": "Argentina",
    "Coordinates": {
      "Latitude": -29.883,
      "Longitude": -61.95,
      "Elevation": 88
    },
    "WarmingAnomaly": 0.9600013550135493,
    "HeatingScore": 3,
    "Id": "4ff724fd-3140-4a91-9239-92edebbfe424",
    "Name": "Ceres Aero"
  },
  {
    "CountryCode": "RS",
    "Country": "Russia",
    "Coordinates": {
      "Latitude": 49.4,
      "Longitude": 40.2,
      "Elevation": 145
    },
    "WarmingAnomaly": 1.3564444444444446,
    "HeatingScore": 6,
    "Id": "c2b10ec1-0fcc-467c-a2a6-039263402ddd",
    "Name": "Certkovo"
  },
  {
    "CountryCode": "US",
    "Country": "United States of America",
    "Coordinates": {
      "Latitude": 36.9178,
      "Longitude": -106.5781,
      "Elevation": 2392.7
    },
    "WarmingAnomaly": -0.16259027777777746,
    "HeatingScore": 0,
    "Id": "c1437d5d-6364-4606-99e1-99166d3f19d2",
    "Name": "Chama"
  },
  {
    "CountryCode": "CH",
    "Country": "China",
    "Coordinates": {
      "Latitude": 43.9,
      "Longitude": 125.217,
      "Elevation": 238
    },
    "WarmingAnomaly": 1.656107905982907,
    "HeatingScore": 8,
    "Id": "15e88526-4858-433e-84d0-3f043938be7c",
    "Name": "Changchun"
  },
  {
    "CountryCode": "CH",
    "Country": "China",
    "Coordinates": {
      "Latitude": 29.05,
      "Longitude": 111.683,
      "Elevation": 35
    },
    "WarmingAnomaly": 1.1761452991453005,
    "HeatingScore": 4,
    "Id": "e453c38d-12d3-47fc-a50a-3e9c8991cfd2",
    "Name": "Changde"
  },
  {
    "CountryCode": "TH",
    "Country": "Thailand",
    "Coordinates": {
      "Latitude": 12.6,
      "Longitude": 102.117,
      "Elevation": 4
    },
    "WarmingAnomaly": 0.6933732638888941,
    "HeatingScore": 1,
    "Id": "7e283879-e4d2-4213-a1f4-c7611dd561f4",
    "Name": "Chanthaburi"
  },
  {
    "CountryCode": "RS",
    "Country": "Russia",
    "Coordinates": {
      "Latitude": 56.9,
      "Longitude": 118.2667,
      "Elevation": 709
    },
    "WarmingAnomaly": 1.2968197831978285,
    "HeatingScore": 5,
    "Id": "fea89a79-ee5f-49b8-94bf-5f650799cde3",
    "Name": "Chara"
  },
  {
    "CountryCode": "TX",
    "Country": "Turkmenistan",
    "Coordinates": {
      "Latitude": 39.0831,
      "Longitude": 63.6,
      "Elevation": 193
    },
    "WarmingAnomaly": 1.3840892857142872,
    "HeatingScore": 6,
    "Id": "be05d981-65bb-4255-981f-39828b8e3bac",
    "Name": "Chardzhev"
  },
  {
    "CountryCode": "US",
    "Country": "United States of America",
    "Coordinates": {
      "Latitude": 32.78,
      "Longitude": -79.9319,
      "Elevation": 3
    },
    "WarmingAnomaly": 0.6693935185185182,
    "HeatingScore": 1,
    "Id": "4db8e6cb-8568-49f8-b048-94184f38d82c",
    "Name": "Charleston City"
  },
  {
    "CountryCode": "AS",
    "Country": "Australia",
    "Coordinates": {
      "Latitude": -26.41,
      "Longitude": 146.26,
      "Elevation": 301
    },
    "WarmingAnomaly": 1.4816129404670377,
    "HeatingScore": 7,
    "Id": "0bc92500-5977-4aa2-81ae-a57ff8eabed3",
    "Name": "Charleville"
  },
  {
    "CountryCode": "VQ",
    "Country": "Virgin Islands [United States of America]",
    "Coordinates": {
      "Latitude": 18.3331,
      "Longitude": -64.9667,
      "Elevation": 6.1
    },
    "Id": "cac43997-6a2c-4ab6-bbfa-4df3e4425c3e",
    "Name": "Charlotte Amalie Ap"
  },
  {
    "CountryCode": "CA",
    "Country": "Canada",
    "Coordinates": {
      "Latitude": 46.2833,
      "Longitude": -63.1333,
      "Elevation": 49
    },
    "WarmingAnomaly": 1.272729797979796,
    "HeatingScore": 5,
    "Id": "4775850d-6ae5-44d4-88b4-26a085442676",
    "Name": "Charlottetown A"
  },
  {
    "CountryCode": "AS",
    "Country": "Australia",
    "Coordinates": {
      "Latitude": -20.05,
      "Longitude": 146.27,
      "Elevation": 289
    },
    "WarmingAnomaly": 0.9407595802764632,
    "HeatingScore": 3,
    "Id": "80a5afb6-f043-4e61-b1e3-b60029b9c559",
    "Name": "Charters Towers"
  },
  {
    "CountryCode": "US",
    "Country": "United States of America",
    "Coordinates": {
      "Latitude": 35.0311,
      "Longitude": -85.2014,
      "Elevation": 204.5
    },
    "WarmingAnomaly": 0.7464896351575447,
    "HeatingScore": 1,
    "Id": "afd14c8f-ddf5-4391-a7ce-fbe0fb6f4b52",
    "Name": "Chattanooga Lovell Ap"
  },
  {
    "CountryCode": "EZ",
    "Country": "Czech Republic",
    "Coordinates": {
      "Latitude": 50.067,
      "Longitude": 12.383,
      "Elevation": 490
    },
    "WarmingAnomaly": 1.5226157407407444,
    "HeatingScore": 7,
    "Id": "de7ae3b7-c3de-4b78-9c27-797b730e274f",
    "Name": "Cheb"
  },
  {
    "CountryCode": "CH",
    "Country": "China",
    "Coordinates": {
      "Latitude": 40.967,
      "Longitude": 117.917,
      "Elevation": 423
    },
    "WarmingAnomaly": 1.3546481481481472,
    "HeatingScore": 6,
    "Id": "1ceb3479-dee5-4974-8b0f-a67a65e5dec1",
    "Name": "Chengde"
  },
  {
    "CountryCode": "CH",
    "Country": "China",
    "Coordinates": {
      "Latitude": 30.667,
      "Longitude": 104.017,
      "Elevation": 508
    },
    "WarmingAnomaly": 0.5432222222222265,
    "HeatingScore": 0,
    "Id": "53950f8a-1a78-4b21-a30c-5195c95e9beb",
    "Name": "Chengdu"
  },
  {
    "CountryCode": "CH",
    "Country": "China",
    "Coordinates": {
      "Latitude": 37.4,
      "Longitude": 122.683,
      "Elevation": 47
    },
    "WarmingAnomaly": 1.0589509043927698,
    "HeatingScore": 3,
    "Id": "4f9834f0-cace-4ae6-b41d-9b1e99ec021f",
    "Name": "Chengshantou"
  },
  {
    "CountryCode": "RS",
    "Country": "Russia",
    "Coordinates": {
      "Latitude": 60.4,
      "Longitude": 56.52,
      "Elevation": 208
    },
    "WarmingAnomaly": 1.5574708994708995,
    "HeatingScore": 7,
    "Id": "cc8ac5a6-971f-4764-8d0f-13deba1cd429",
    "Name": "Cherdyn"
  },
  {
    "CountryCode": "UP",
    "Country": "Ukraine",
    "Coordinates": {
      "Latitude": 48.3667,
      "Longitude": 25.9,
      "Elevation": 246
    },
    "WarmingAnomaly": 1.504282407407409,
    "HeatingScore": 7,
    "Id": "b65858c9-cc89-42e6-bcc8-a7faa8387811",
    "Name": "Chernivtsi"
  },
  {
    "CountryCode": "RS",
    "Country": "Russia",
    "Coordinates": {
      "Latitude": 52.78,
      "Longitude": 126,
      "Elevation": 208
    },
    "WarmingAnomaly": 1.4997929292929293,
    "HeatingScore": 7,
    "Id": "3f7f30d7-7c3c-4a46-a38f-cf5951da9f3c",
    "Name": "Chernjaevo"
  },
  {
    "CountryCode": "RS",
    "Country": "Russia",
    "Coordinates": {
      "Latitude": 68.75,
      "Longitude": 161.283,
      "Elevation": 28
    },
    "WarmingAnomaly": 2.1728611111111142,
    "HeatingScore": 9,
    "Id": "dcd4aba8-18c2-4043-a54a-ab848320f468",
    "Name": "Cherskij"
  },
  {
    "CountryCode": "RS",
    "Country": "Russia",
    "Coordinates": {
      "Latitude": 57.65,
      "Longitude": 99.53,
      "Elevation": 219
    },
    "WarmingAnomaly": 1.3616281362007165,
    "HeatingScore": 6,
    "Id": "1c222dd7-2c0e-4d3d-af35-3c24f87b6e8a",
    "Name": "Chervjanka"
  },
  {
    "CountryCode": "MX",
    "Country": "Mexico",
    "Coordinates": {
      "Latitude": 18.505,
      "Longitude": -88.327,
      "Elevation": 11.9
    },
    "WarmingAnomaly": 2.044758807588064,
    "HeatingScore": 9,
    "Id": "186b313c-f7b3-4f6d-b91f-ba63e18c30ab",
    "Name": "Chetumal Intl"
  },
  {
    "CountryCode": "TH",
    "Country": "Thailand",
    "Coordinates": {
      "Latitude": 18.783,
      "Longitude": 98.983,
      "Elevation": 313
    },