[
  {
    "CountryCode": "AS",
    "Coordinates": {
      "Latitude": -34.92,
      "Longitude": 138.62,
      "Elevation": 48
    },
    "WarmingIndex": 0.7465954,
    "HeatingScore": 5,
    "Id": "70a07bb0-2220-402b-be83-f2c35edfdd12",
    "Name": "Adelaide"
  },
  {
    "CountryCode": "AS",
    "Coordinates": {
      "Latitude": -34.94,
      "Longitude": 117.82,
      "Elevation": 68
    },
    "WarmingIndex": 0.80615044,
    "HeatingScore": 5,
    "Id": "e491279a-781c-4eb0-8ccf-d49f3d9e2d5a",
    "Name": "Albany"
  },
  {
    "CountryCode": "AS",
    "Coordinates": {
      "Latitude": -23.8,
      "Longitude": 133.89,
      "Elevation": 546
    },
    "WarmingIndex": 1.4505749,
    "HeatingScore": 9,
    "Id": "fbb67194-9253-4ed2-bd20-f4a0211b264b",
    "Name": "Alice Springs"
  },
  {
    "CountryCode": "AS",
    "Coordinates": {
      "Latitude": -27.63,
      "Longitude": 152.71,
      "Elevation": 24
    },
    "WarmingIndex": 0.78131294,
    "HeatingScore": 5,
    "Id": "0cfb93a1-e0b6-4b87-87a6-90c0e01ca9ca",
    "Name": "Amberley"
  },
  {
    "CountryCode": "NZ",
    "Coordinates": {
      "Latitude": -37.00813,
      "Longitude": 174.78873,
      "Elevation": 7
    },
    "WarmingIndex": 1.0246849,
    "HeatingScore": 6,
    "Id": "a28e017a-a23b-4f59-914d-d1171bfd60be",
    "Name": "Auckland"
  },
  {
    "CountryCode": "AS",
    "Coordinates": {
      "Latitude": -33.43,
      "Longitude": 149.56,
      "Elevation": 713
    },
    "WarmingIndex": 0.9191818,
    "HeatingScore": 6,
    "Id": "0b927604-fbaa-4930-bb5c-cf4b0f8b8914",
    "Name": "Bathurst"
  },
  {
    "CountryCode": "AS",
    "Coordinates": {
      "Latitude": -22.91,
      "Longitude": 139.9,
      "Elevation": 161
    },
    "WarmingIndex": 1.051197,
    "HeatingScore": 7,
    "Id": "f285ba2b-d6d6-4390-a80f-803522668bde",
    "Name": "Boulia"
  },
  {
    "CountryCode": "AS",
    "Coordinates": {
      "Latitude": -30.04,
      "Longitude": 145.95,
      "Elevation": 107
    },
    "WarmingIndex": 0.44011307,
    "HeatingScore": 3,
    "Id": "bab198bd-3940-4f13-a4f7-68af10735039",
    "Name": "Bourke"
  },
  {
    "CountryCode": "AS",
    "Coordinates": {
      "Latitude": -33.95,
      "Longitude": 116.13,
      "Elevation": 178
    },
    "WarmingIndex": 0.9178066,
    "HeatingScore": 6,
    "Id": "9ea5be14-0e54-4453-8e8b-4c11e075cb42",
    "Name": "Bridgetown"
  },
  {
    "CountryCode": "AS",
    "Coordinates": {
      "Latitude": -27.39,
      "Longitude": 153.13,
      "Elevation": 4
    },
    "WarmingIndex": 0.29078102,
    "HeatingScore": 2,
    "Id": "b7e0c061-e71c-4fc4-8068-c0432398c24f",
    "Name": "Brisbane Airport"
  },
  {
    "CountryCode": "AS",
    "Coordinates": {
      "Latitude": -17.95,
      "Longitude": 122.24,
      "Elevation": 7
    },
    "WarmingIndex": 0.8236389,
    "HeatingScore": 5,
    "Id": "05daa0ea-6227-4225-bf52-8204808709b5",
    "Name": "Broome"
  },
  {
    "CountryCode": "AS",
    "Coordinates": {
      "Latitude": -24.91,
      "Longitude": 152.32,
      "Elevation": 30
    },
    "WarmingIndex": 0.4591694,
    "HeatingScore": 3,
    "Id": "b2c819cd-b20b-48b0-8148-eef2f8fd88b7",
    "Name": "Bundaberg"
  },
  {
    "CountryCode": "AS",
    "Coordinates": {
      "Latitude": -17.75,
      "Longitude": 139.54,
      "Elevation": 5
    },
    "WarmingIndex": 0.9805832,
    "HeatingScore": 6,
    "Id": "fba7ed39-c752-460d-aa2e-342da7b55817",
    "Name": "Burketown"
  },
  {
    "CountryCode": "AS",
    "Coordinates": {
      "Latitude": -42.28,
      "Longitude": 146.28,
      "Elevation": 667
    },
    "WarmingIndex": 1.0235109,
    "HeatingScore": 6,
    "Id": "5f6f3d62-4c80-441d-b30f-104d2f5d2e96",
    "Name": "Butlers Gorge"
  },
  {
    "CountryCode": "AS",
    "Coordinates": {
      "Latitude": -16.87,
      "Longitude": 145.75,
      "Elevation": 2
    },
    "WarmingIndex": 0.48167992,
    "HeatingScore": 3,
    "Id": "8fe98f5f-c239-4f2f-961a-5686147e53f7",
    "Name": "Cairns"
  },
  {
    "CountryCode": "AS",
    "Coordinates": {
      "Latitude": -19.92,
      "Longitude": 138.12,
      "Elevation": 231
    },
    "WarmingIndex": 0.7909126,
    "HeatingScore": 5,
    "Id": "09a5ba01-f523-4be3-ae7b-7a29a0da581c",
    "Name": "Camooweal"
  },
  {
    "CountryCode": "NZ",
    "Coordinates": {
      "Latitude": -52.55059,
      "Longitude": 169.14978,
      "Elevation": 16
    },
    "WarmingIndex": 0.13160801,
    "HeatingScore": 1,
    "Id": "1e69bdc6-1bdd-42b6-96ad-35b0648aa9d0",
    "Name": "Campbell Island"
  },
  {
    "CountryCode": "AS",
    "Coordinates": {
      "Latitude": -35.31,
      "Longitude": 149.2,
      "Elevation": 577
    },
    "WarmingIndex": 1.3413429,
    "HeatingScore": 8,
    "Id": "c0f2743b-fb00-4128-9024-bafa4e1c85ed",
    "Name": "Canberra"
  },
  {
    "CountryCode": "AS",
    "Coordinates": {
      "Latitude": -43.49,
      "Longitude": 147.14,
      "Elevation": 60
    },
    "WarmingIndex": 0.81161785,
    "HeatingScore": 5,
    "Id": "eb75b5eb-8feb-4118-b6ab-bbe9b4fbc334",
    "Name": "Cape Bruny"
  },
  {
    "CountryCode": "AS",
    "Coordinates": {
      "Latitude": -34.37,
      "Longitude": 115.14,
      "Elevation": 13
    },
    "WarmingIndex": 0.8150406,
    "HeatingScore": 5,
    "Id": "f8dfe45b-d49c-4c0f-8d69-27d2d92cdb4b",
    "Name": "Cape Leeuwin"
  },
  {
    "CountryCode": "AS",
    "Coordinates": {
      "Latitude": -27.03,
      "Longitude": 153.47,
      "Elevation": 99
    },
    "WarmingIndex": 0.4804268,
    "HeatingScore": 3,
    "Id": "33d2cd26-bded-4abc-8e03-2f3266e3923f",
    "Name": "Cape Moreton"
  },
  {
    "CountryCode": "AS",
    "Coordinates": {
      "Latitude": -38.86,
      "Longitude": 143.51,
      "Elevation": 82
    },
    "WarmingIndex": 0.6456623,
    "HeatingScore": 4,
    "Id": "592c8e33-cc36-4cce-9af1-82bb3f26a5af",
    "Name": "Cape Otway"
  },
  {
    "CountryCode": "AS",
    "Coordinates": {
      "Latitude": -24.89,
      "Longitude": 113.67,
      "Elevation": 4
    },
    "WarmingIndex": 0.7078552,
    "HeatingScore": 4,
    "Id": "1c72f3e1-7d98-4ac5-8b64-1b5b2a4d599e",
    "Name": "Carnarvon"
  },
  {
    "CountryCode": "AS",
    "Coordinates": {
      "Latitude": -32.13,
      "Longitude": 133.7,
      "Elevation": 15
    },
    "WarmingIndex": 1.1745071,
    "HeatingScore": 7,
    "Id": "4397371d-a43b-4925-af58-bec79e6ca802",
    "Name": "Ceduna"
  },
  {
    "CountryCode": "UK",
    "Coordinates": {
      "Latitude": 52.42,
      "Longitude": -1.83,
      "Elevation": 78
    },
    "WarmingIndex": 1.1923132,
    "HeatingScore": 7,
    "Id": "a5a179b5-5394-44d1-b653-bbf6b052279c",
    "Name": "Central England"
  },
  {
    "CountryCode": "AS",
    "Coordinates": {
      "Latitude": -26.41,
      "Longitude": 146.26,
      "Elevation": 301
    },
    "WarmingIndex": 1.1143188,
    "HeatingScore": 7,
    "Id": "0bc92500-5977-4aa2-81ae-a57ff8eabed3",
    "Name": "Charleville"
  },
  {
    "CountryCode": "AS",
    "Coordinates": {
      "Latitude": -20.05,
      "Longitude": 146.27,
      "Elevation": 289
    },
    "WarmingIndex": 0.83937263,
    "HeatingScore": 5,
    "Id": "80a5afb6-f043-4e61-b1e3-b60029b9c559",
    "Name": "Charters Towers"
  },
  {
    "CountryCode": "AS",
    "Coordinates": {
      "Latitude": -31.48,
      "Longitude": 145.83,
      "Elevation": 260
    },
    "WarmingIndex": 1.1504097,
    "HeatingScore": 7,
    "Id": "6f523c50-bf77-44d1-8418-57ea555855a3",
    "Name": "Cobar"
  },
  {
    "CountryCode": "AS",
    "Coordinates": {
      "Latitude": -12.19,
      "Longitude": 96.83,
      "Elevation": 3
    },
    "WarmingIndex": 0.06333351,
    "HeatingScore": 0,
    "Id": "fe4f7ca3-f92c-459b-a85b-e37be4871fda",
    "Name": "Cocos Island"
  },
  {
    "CountryCode": "AS",
    "Coordinates": {
      "Latitude": -30.32,
      "Longitude": 153.12,
      "Elevation": 3
    },
    "WarmingIndex": 0.5081768,
    "HeatingScore": 3,
    "Id": "8a63813f-8544-46b6-806e-6bc32dfc1b0d",
    "Name": "Coffs Harbour"
  },
  {
    "CountryCode": "AS",
    "Coordinates": {
      "Latitude": -31.62,
      "Longitude": 117.22,
      "Elevation": 216
    },
    "WarmingIndex": 1.3580971,
    "HeatingScore": 8,
    "Id": "d7307020-9788-4269-ae25-19926ca9e198",
    "Name": "Cunderdin"
  },
  {
    "CountryCode": "AS",
    "Coordinates": {
      "Latitude": -12.42,
      "Longitude": 130.89,
      "Elevation": 30
    },
    "WarmingIndex": 1.4212437,
    "HeatingScore": 9,
    "Id": "00147d6f-1569-422f-8322-a42b98e25071",
    "Name": "Darwin"
  },
  {
    "CountryCode": "AS",
    "Coordinates": {
      "Latitude": -35.56,
      "Longitude": 144.95,
      "Elevation": 94
    },
    "WarmingIndex": 0.94460297,
    "HeatingScore": 6,
    "Id": "2e2acf0b-592b-4ba4-adc9-b6f08546b92a",
    "Name": "Deniliquin"
  },
  {
    "CountryCode": "AS",
    "Coordinates": {
      "Latitude": -32.22,
      "Longitude": 148.58,
      "Elevation": 284
    },
    "WarmingIndex": 1.0637741,
    "HeatingScore": 7,
    "Id": "5e5c8eee-e28d-4651-bb04-24d08e89c254",
    "Name": "Dubbo"
  },
  {
    "CountryCode": "NZ",
    "Coordinates": {
      "Latitude": -45.90129,
      "Longitude": 170.5147,
      "Elevation": 4
    },
    "WarmingIndex": 0.3310814,
    "HeatingScore": 2,
    "Id": "0c75321e-ffc1-48cd-afd2-2d30301a545d",
    "Name": "Dunedin"
  },
  {
    "CountryCode": "AS",
    "Coordinates": {
      "Latitude": -33.83,
      "Longitude": 121.89,
      "Elevation": 25
    },
    "WarmingIndex": 0.8963394,
    "HeatingScore": 6,
    "Id": "7c7d3560-0741-4966-a878-b2749afc7737",
    "Name": "Esperance"
  },
  {
    "CountryCode": "AS",
    "Coordinates": {
      "Latitude": -31.68,
      "Longitude": 128.9,
      "Elevation": 93
    },
    "WarmingIndex": 1.2182884,
    "HeatingScore": 8,
    "Id": "663a6037-a8de-462a-9d74-396ec881ffeb",
    "Name": "Eucla"
  },
  {
    "CountryCode": "AS",
    "Coordinates": {
      "Latitude": -30.85,
      "Longitude": 128.11,
      "Elevation": 159
    },
    "WarmingIndex": 0.73077583,
    "HeatingScore": 5,
    "Id": "a7a48420-7677-444a-a6aa-e8d6eb195729",
    "Name": "Forrest"
  },
  {
    "CountryCode": "AS",
    "Coordinates": {
      "Latitude": -37.57,
      "Longitude": 149.92,
      "Elevation": 15
    },
    "WarmingIndex": 0.3638668,
    "HeatingScore": 2,
    "Id": "714a7fe5-cea8-4e9b-bac0-cb01f8d0fff3",
    "Name": "Gabo Island"
  },
  {
    "CountryCode": "AS",
    "Coordinates": {
      "Latitude": -25.62,
      "Longitude": 151.62,
      "Elevation": 110
    },
    "WarmingIndex": 0.9238281,
    "HeatingScore": 6,
    "Id": "64004954-c0c6-4de3-9ac1-3f50bada1ec9",
    "Name": "Gayndah"
  },
  {
    "CountryCode": "AS",
    "Coordinates": {
      "Latitude": -18.3,
      "Longitude": 143.53,
      "Elevation": 301
    },
    "WarmingIndex": 0.9067421,
    "HeatingScore": 6,
    "Id": "2bf20585-6b1a-4e3c-a8ed-1d87e67789a6",
    "Name": "Georgetown"
  },
  {
    "CountryCode": "AS",
    "Coordinates": {
      "Latitude": -28.8,
      "Longitude": 114.7,
      "Elevation": 29
    },
    "WarmingIndex": 1.3557224,
    "HeatingScore": 8,
    "Id": "c6ba58ea-6142-4954-afac-256ca81c67bc",
    "Name": "Geraldton"
  },
  {
    "CountryCode": "AS",
    "Coordinates": {
      "Latitude": -25.03,
      "Longitude": 128.3,
      "Elevation": 598
    },
    "WarmingIndex": 0.9783859,
    "HeatingScore": 6,
    "Id": "e61fd5fb-f6a0-41b0-99bf-bc2eddb1a90c",
    "Name": "Giles"
  },
  {
    "CountryCode": "NZ",
    "Coordinates": {
      "Latitude": -38.6586,
      "Longitude": 177.98512,
      "Elevation": 5
    },
    "WarmingIndex": 0.38977814,
    "HeatingScore": 2,
    "Id": "28e0e278-1bc8-46b8-b809-23b85618623e",
    "Name": "Gisborne Airport"
  },
  {
    "CountryCode": "AS",
    "Coordinates": {
      "Latitude": -42.99,
      "Longitude": 147.07,
      "Elevation": 65
    },
    "WarmingIndex": 0.17598724,
    "HeatingScore": 1,
    "Id": "db8309f6-72b8-49e2-89b3-69a13989a392",
    "Name": "Grove"
  },
  {
    "CountryCode": "AS",
    "Coordinates": {
      "Latitude": -31.03,
      "Longitude": 150.27,
      "Elevation": 307
    },
    "WarmingIndex": 0.70327187,
    "HeatingScore": 4,
    "Id": "b8a3092a-041f-478d-951f-5ee4dda0a410",
    "Name": "Gunnedah"
  },
  {
    "CountryCode": "AS",
    "Coordinates": {
      "Latitude": -18.23,
      "Longitude": 127.67,
      "Elevation": 409
    },
    "WarmingIndex": 1.075325,
    "HeatingScore": 7,
    "Id": "ba6fb433-bc80-4890-8c8b-16830b95f633",
    "Name": "Halls Creek"
  },
  {
    "CountryCode": "NZ",
    "Coordinates": {
      "Latitude": -37.77389,
      "Longitude": 175.30518,
      "Elevation": 45
    },
    "WarmingIndex": 0.70575523,
    "HeatingScore": 4,
    "Id": "f5a8a194-681a-4116-8a75-97fcbb57e20b",
    "Name": "Hamilton"
  },
  {
    "CountryCode": "AS",
    "Coordinates": {
      "Latitude": -42.89,
      "Longitude": 147.33,
      "Elevation": 50
    },
    "WarmingIndex": 0.94789505,
    "HeatingScore": 6,
    "Id": "aed87aa0-1d0c-44aa-8561-cde0fc936395",
    "Name": "Hobart"
  },
  {
    "CountryCode": "NZ",
    "Coordinates": {
      "Latitude": -42.712,
      "Longitude": 170.984,
      "Elevation": 39
    },
    "WarmingIndex": 0.34389305,
    "HeatingScore": 2,
    "Id": "f7f809a7-6755-4ab7-b1e6-3ae933dd89ae",
    "Name": "Hokitika"
  },
  {
    "CountryCode": "NZ",
    "Coordinates": {
      "Latitude": -46.41741,
      "Longitude": 168.33052,
      "Elevation": 1
    },
    "WarmingIndex": 0.31964397,
    "HeatingScore": 2,
    "Id": "7a6c3b06-bfed-4cee-b256-a456e6fb6e1d",
    "Name": "Invercargill Airport"
  },
  {
    "CountryCode": "AS",
    "Coordinates": {
      "Latitude": -29.78,
      "Longitude": 151.11,
      "Elevation": 582
    },
    "WarmingIndex": 0.78525543,
    "HeatingScore": 5,
    "Id": "c5094f09-3fb3-4455-bf7b-b835928ad5f3",
    "Name": "Inverell"
  },
  {
    "CountryCode": "AS",
    "Coordinates": {
      "Latitude": -30.78,
      "Longitude": 121.45,
      "Elevation": 365
    },
    "WarmingIndex": 0.6781521,
    "HeatingScore": 4,
    "Id": "6e8b7fce-49bf-41d2-959d-62130a40fb22",
    "Name": "Kalgoorlie-Boulder"
  },
  {
    "CountryCode": "AS",
    "Coordinates": {
      "Latitude": -14.3,
      "Longitude": 126.65,
      "Elevation": 23
    },
    "WarmingIndex": 0.62799835,
    "HeatingScore": 4,
    "Id": "cbb11150-ec74-4401-8357-fae6fef70768",
    "Name": "Kalumburu"
  },
  {
    "CountryCode": "AS",
    "Coordinates": {
      "Latitude": -22.3,
      "Longitude": 118.45,
      "Elevation": 474
    },
    "WarmingIndex": 1.0041733,
    "HeatingScore": 6,
    "Id": "48c35ccf-3ff8-4448-90de-1e491c500887",
    "Name": "Karijini North (Wittenoom)"
  },
  {
    "CountryCode": "AS",
    "Coordinates": {
      "Latitude": -33.69,
      "Longitude": 117.61,
      "Elevation": 320
    },
    "WarmingIndex": 0.82159996,
    "HeatingScore": 5,
    "Id": "aa0021dd-8c27-4101-96b7-5e6b60c0c70a",
    "Name": "Katanning"
  },
  {
    "CountryCode": "AS",
    "Coordinates": {
      "Latitude": -35.72,
      "Longitude": 143.92,
      "Elevation": 77
    },
    "WarmingIndex": 0.9399071,
    "HeatingScore": 6,
    "Id": "23701518-8a46-4b7e-b9ef-da570d77b7cb",
    "Name": "Kerang"
  },
  {
    "CountryCode": "AS",
    "Coordinates": {
      "Latitude": -33.13,
      "Longitude": 135.55,
      "Elevation": 59
    },
    "WarmingIndex": 1.1979103,
    "HeatingScore": 7,
    "Id": "6b771c0b-97d3-45c7-9cd1-72fdee232e7c",
    "Name": "Kyancutta"
  },
  {
    "CountryCode": "AS",
    "Coordinates": {
      "Latitude": -40.99,
      "Longitude": 148.35,
      "Elevation": 19
    },
    "WarmingIndex": 0.783638,
    "HeatingScore": 5,
    "Id": "20ab0202-8038-4275-aad2-70788ec68d6e",
    "Name": "Larapuna (Eddystone Point)"
  },
  {
    "CountryCode": "AS",
    "Coordinates": {
      "Latitude": -41.55,
      "Longitude": 147.22,
      "Elevation": 166
    },
    "WarmingIndex": 0.64935684,
    "HeatingScore": 4,
    "Id": "b483cb66-25cc-45ee-b1c8-8db405f0415a",
    "Name": "Launceston Airport"
  },
  {
    "CountryCode": "AS",
    "Coordinates": {
      "Latitude": -37.86,
      "Longitude": 144.76,
      "Elevation": 20
    },
    "WarmingIndex": 0.9623184,
    "HeatingScore": 6,
    "Id": "ddbdddc8-8f95-4a44-b55b-f52378460640",
    "Name": "Laverton"
  },
  {
    "CountryCode": "NZ",
    "Coordinates": {
      "Latitude": -43.62622,
      "Longitude": 172.4704,
      "Elevation": 18
    },
    "WarmingIndex": 0.30897903,
    "HeatingScore": 2,
    "Id": "ccbb9417-cc42-4503-b5f6-58e01ae7ebfa",
    "Name": "Lincoln"
  },
  {
    "CountryCode": "AS",
    "Coordinates": {
      "Latitude": -23.44,
      "Longitude": 144.28,
      "Elevation": 192
    },
    "WarmingIndex": 0.4323063,
    "HeatingScore": 3,
    "Id": "9fff8b80-9230-4161-a626-c0f6e8c3b3e7",
    "Name": "Longreach"
  },
  {
    "CountryCode": "AS",
    "Coordinates": {
      "Latitude": -31.54,
      "Longitude": 159.08,
      "Elevation": 5
    },
    "WarmingIndex": 0.5820141,
    "HeatingScore": 4,
    "Id": "8eb51f35-e4ff-4686-ad76-306778fcc706",
    "Name": "Lord Howe Island"
  },
  {
    "CountryCode": "AS",
    "Coordinates": {
      "Latitude": -41.05,
      "Longitude": 146.79,
      "Elevation": 3
    },
    "WarmingIndex": 0.75359535,
    "HeatingScore": 5,
    "Id": "1b4b65dc-5742-432d-a4ae-d83069397723",
    "Name": "Low Head"
  },
  {
    "CountryCode": "AS",
    "Coordinates": {
      "Latitude": -21.12,
      "Longitude": 149.22,
      "Elevation": 30
    },
    "WarmingIndex": 1.3995876,
    "HeatingScore": 9,
    "Id": "a5bff3b7-d9dc-40cb-bdb0-f2f07af2e2b7",
    "Name": "Mackay"
  },
  {
    "CountryCode": "AS",
    "Coordinates": {
      "Latitude": -54.5,
      "Longitude": 158.94,
      "Elevation": 6
    },
    "WarmingIndex": 0.21697712,
    "HeatingScore": 1,
    "Id": "07987b31-4934-47f7-b62c-5c5f39e49935",
    "Name": "Macquarie Island"
  },
  {
    "CountryCode": "AS",
    "Coordinates": {
      "Latitude": -21.18,
      "Longitude": 119.75,
      "Elevation": 182
    },
    "WarmingIndex": 0.4959259,
    "HeatingScore": 3,
    "Id": "909dadb1-c33b-412b-97e0-42f5704f4090",
    "Name": "Marble Bar"
  },
  {
    "CountryCode": "AS",
    "Coordinates": {
      "Latitude": -29.66,
      "Longitude": 138.07,
      "Elevation": 50
    },
    "WarmingIndex": 1.3485317,
    "HeatingScore": 8,
    "Id": "516cbbab-1226-4caa-b18d-e5b2aeeff7d6",
    "Name": "Marree"
  },
  {
    "CountryCode": "NZ",
    "Coordinates": {
      "Latitude": -41.25231,
      "Longitude": 175.38985,
      "Elevation": 20
    },
    "WarmingIndex": 0.5039444,
    "HeatingScore": 3,
    "Id": "53fc123f-ea7e-493a-a9e4-474b798a763c",
    "Name": "Masterton"
  },
  {
    "CountryCode": "AS",
    "Coordinates": {
      "Latitude": -67.6,
      "Longitude": 62.88,
      "Elevation": 10
    },
    "WarmingIndex": 0.24150562,
    "HeatingScore": 1,
    "Id": "484e686d-c55e-420c-aa53-71293e73dafe",
    "Name": "Mawson"
  },
  {
    "CountryCode": "AS",
    "Coordinates": {
      "Latitude": -26.61,
      "Longitude": 118.54,
      "Elevation": 517
    },
    "WarmingIndex": 1.0240479,
    "HeatingScore": 6,
    "Id": "9ce454b6-7e6c-4516-88a7-6504444a4754",
    "Name": "Meekatharra"
  },
  {
    "CountryCode": "AS",
    "Coordinates": {
      "Latitude": -37.83,
      "Longitude": 144.98,
      "Elevation": 7
    },
    "WarmingIndex": 1.0007229,
    "HeatingScore": 6,
    "Id": "1e743b5c-f9bf-477c-8b16-7d45c67909a7",
    "Name": "Melbourne"
  },
  {
    "CountryCode": "AS",
    "Coordinates": {
      "Latitude": -31.48,
      "Longitude": 118.28,
      "Elevation": 315
    },
    "WarmingIndex": 0.8806515,
    "HeatingScore": 5,
    "Id": "fdd46b2e-4da4-4426-a17d-034ee9752ef6",
    "Name": "Merredin"
  },
  {
    "CountryCode": "AS",
    "Coordinates": {
      "Latitude": -34.24,
      "Longitude": 142.09,
      "Elevation": 50
    },
    "WarmingIndex": 0.61738014,
    "HeatingScore": 4,
    "Id": "f6093d63-0476-4bd4-bb88-6322cf04dfaa",
    "Name": "Mildura"
  },
  {
    "CountryCode": "AS",
    "Coordinates": {
      "Latitude": -26.66,
      "Longitude": 150.18,
      "Elevation": 304
    },
    "WarmingIndex": 0.79473114,
    "HeatingScore": 5,
    "Id": "a14c760f-4858-4f36-8d0a-7f219dc9b303",
    "Name": "Miles"
  },
  {
    "CountryCode": "AS",
    "Coordinates": {
      "Latitude": -29.49,
      "Longitude": 149.85,
      "Elevation": 213
    },
    "WarmingIndex": 0.3638115,
    "HeatingScore": 2,
    "Id": "8867cc4a-6da5-41e6-a4f7-e02dd9460cdd",
    "Name": "Moree"
  },
  {
    "CountryCode": "AS",
    "Coordinates": {
      "Latitude": -35.91,
      "Longitude": 150.15,
      "Elevation": 17
    },
    "WarmingIndex": 0.56742096,
    "HeatingScore": 4,
    "Id": "59803ca9-d81b-4888-bd08-473f659e1fc0",
    "Name": "Moruya Heads"
  },
  {
    "CountryCode": "AS",
    "Coordinates": {
      "Latitude": -37.75,
      "Longitude": 140.77,
      "Elevation": 63
    },
    "WarmingIndex": 0.56534195,
    "HeatingScore": 4,
    "Id": "4865e9b4-d86a-4961-b65c-cc33f969ff04",
    "Name": "Mount Gambier"
  },
  {
    "CountryCode": "NZ",
    "Coordinates": {
      "Latitude": -41.299,
      "Longitude": 173.226,
      "Elevation": 2
    },
    "WarmingIndex": 0.4242115,
    "HeatingScore": 3,
    "Id": "4977fb61-9228-45d4-be28-e9d19d23088b",
    "Name": "Nelson"
  },
  {
    "CountryCode": "AS",
    "Coordinates": {
      "Latitude": -36.31,
      "Longitude": 141.65,
      "Elevation": 138
    },
    "WarmingIndex": 0.989069,
    "HeatingScore": 6,
    "Id": "4006f876-24bb-4b31-9318-72fcf44f47b0",
    "Name": "Nhill"
  },
  {
    "CountryCode": "AS",
    "Coordinates": {
      "Latitude": -29.04,
      "Longitude": 167.94,
      "Elevation": 112
    },
    "WarmingIndex": 0.32365417,
    "HeatingScore": 2,
    "Id": "bf97eea8-252d-4f89-9ba8-924341973039",
    "Name": "Norfolk Island"
  },
  {
    "CountryCode": "AS",
    "Coordinates": {
      "Latitude": -17.69,
      "Longitude": 141.07,
      "Elevation": 18
    },
    "WarmingIndex": 0.75831604,
    "HeatingScore": 5,
    "Id": "f0991551-814d-4323-9c0b-c8f12b887985",
    "Name": "Normanton"
  },
  {
    "CountryCode": "AS",
    "Coordinates": {
      "Latitude": -34.48,
      "Longitude": 139.01,
      "Elevation": 275
    },
    "WarmingIndex": 0.6501579,
    "HeatingScore": 4,
    "Id": "b13e3137-51c7-432a-9194-2c3f42f0e438",
    "Name": "Nuriootpa"
  },
  {
    "CountryCode": "AS",
    "Coordinates": {
      "Latitude": -27.56,
      "Longitude": 135.45,
      "Elevation": 116
    },
    "WarmingIndex": 0.99679756,
    "HeatingScore": 6,
    "Id": "69e0e687-7e35-466a-b518-ee4c76af5cf6",
    "Name": "Oodnadatta"
  },
  {
    "CountryCode": "AS",
    "Coordinates": {
      "Latitude": -37.69,
      "Longitude": 148.47,
      "Elevation": 62
    },
    "WarmingIndex": 0.5112877,
    "HeatingScore": 3,
    "Id": "32ecbe0c-95a6-4d39-b8f4-c7ac859c8122",
    "Name": "Orbost"
  },
  {
    "CountryCode": "NZ",
    "Coordinates": {
      "Latitude": -40.38195,
      "Longitude": 175.60915,
      "Elevation": 21
    },
    "WarmingIndex": 0.41625404,
    "HeatingScore": 3,
    "Id": "c0c902ba-64b3-46d7-a844-837d237537f2",
    "Name": "Palmerston North"
  },
  {
    "CountryCode": "AS",
    "Coordinates": {
      "Latitude": -16,
      "Longitude": 144.08,
      "Elevation": 203
    },
    "WarmingIndex": 0.16140747,
    "HeatingScore": 1,
    "Id": "944b1732-d083-40b8-b865-fbf63941414c",
    "Name": "Palmerville"
  },
  {
    "CountryCode": "AS",
    "Coordinates": {
      "Latitude": -31.93,
      "Longitude": 115.98,
      "Elevation": 15
    },
    "WarmingIndex": 1.3774128,
    "HeatingScore": 9,
    "Id": "02619137-0d4d-4bcf-8ae3-f87697cd178d",
    "Name": "Perth Airport"
  },
  {
    "CountryCode": "AS",
    "Coordinates": {
      "Latitude": -35.09,
      "Longitude": 150.8,
      "Elevation": 85
    },
    "WarmingIndex": 0.6205387,
    "HeatingScore": 4,
    "Id": "1130dd09-dd90-4a8f-8a65-31f14dd449e3",
    "Name": "Point Perpendicular"
  },
  {
    "CountryCode": "AS",
    "Coordinates": {
      "Latitude": -20.37,
      "Longitude": 118.63,
      "Elevation": 6
    },
    "WarmingIndex": 0.43989944,
    "HeatingScore": 3,
    "Id": "04d33b2f-2a8a-4cf0-b281-68b74475d2b4",
    "Name": "Port Hedland"
  },
  {
    "CountryCode": "AS",
    "Coordinates": {
      "Latitude": -34.6,
      "Longitude": 135.88,
      "Elevation": 8
    },
    "WarmingIndex": 1.1310635,
    "HeatingScore": 7,
    "Id": "b4e10e95-ce0f-4ae6-85cf-bc611c8164e8",
    "Name": "Port Lincoln"
  },
  {
    "CountryCode": "AS",
    "Coordinates": {
      "Latitude": -31.43,
      "Longitude": 152.87,
      "Elevation": 4
    },
    "WarmingIndex": 1.1679134,
    "HeatingScore": 7,
    "Id": "5d20e960-257d-4bc2-8d06-162c19fa86a2",
    "Name": "Port Macquarie"
  },
  {
    "CountryCode": "NZ",
    "Coordinates": {
      "Latitude": -45.03476,
      "Longitude": 168.66364,
      "Elevation": 322
    },
    "WarmingIndex": 1.0499392,
    "HeatingScore": 7,
    "Id": "47685338-885d-4c7b-82db-8bd5def52cc4",
    "Name": "Queenstown"
  },
  {
    "CountryCode": "NZ",
    "Coordinates": {
      "Latitude": -29.24488,
      "Longitude": -177.92912,
      "Elevation": 50
    },
    "WarmingIndex": 0.65045357,
    "HeatingScore": 4,
    "Id": "22ce0fe4-99d7-4522-87f1-e1a0b024a098",
    "Name": "Raoul Island"
  },
  {
    "CountryCode": "AS",
    "Coordinates": {
      "Latitude": -33.6,
      "Longitude": 150.78,
      "Elevation": 19
    },
    "WarmingIndex": 0.54802704,
    "HeatingScore": 3,
    "Id": "6c834afc-799c-473e-9d59-91a7ec7974a2",
    "Name": "Richmond (NSW)"
  },
  {
    "CountryCode": "AS",
    "Coordinates": {
      "Latitude": -20.7,
      "Longitude": 143.12,
      "Elevation": 206
    },
    "WarmingIndex": 0.52176666,
    "HeatingScore": 3,
    "Id": "53ea40d9-d6fb-4ffe-9bde-e4188698f2de",
    "Name": "Richmond (Qld)"
  },
  {
    "CountryCode": "AS",
    "Coordinates": {
      "Latitude": -37.16,
      "Longitude": 139.76,
      "Elevation": 3
    },
    "WarmingIndex": 0.32674408,
    "HeatingScore": 2,
    "Id": "5885b48d-d66d-4e89-a30e-ff40a0c7d153",
    "Name": "Robe"
  },
  {
    "CountryCode": "AS",
    "Coordinates": {
      "Latitude": -23.38,
      "Longitude": 150.48,
      "Elevation": 10
    },
    "WarmingIndex": 0.7189522,
    "HeatingScore": 4,
    "Id": "e51c740e-2666-4f56-b397-0a68b26a6c3c",
    "Name": "Rockhampton"
  },
  {
    "CountryCode": "AS",
    "Coordinates": {
      "Latitude": -36.1,
      "Longitude": 146.51,
      "Elevation": 175
    },
    "WarmingIndex": 0.94447327,
    "HeatingScore": 6,
    "Id": "9498f548-f000-4ff2-9c5d-fb7d3037493c",
    "Name": "Rutherglen"
  },
  {
    "CountryCode": "AS",
    "Coordinates": {
      "Latitude": -38.12,
      "Longitude": 147.13,
      "Elevation": 4
    },
    "WarmingIndex": 0.74702454,
    "HeatingScore": 5,
    "Id": "7703f086-589e-406d-b152-dde26cbe6418",
    "Name": "Sale"
  },
  {
    "CountryCode": "AS",
    "Coordinates": {
      "Latitude": -33.77,
      "Longitude": 138.22,
      "Elevation": 109
    },
    "WarmingIndex": 1.0834198,
    "HeatingScore": 7,
    "Id": "55f5699c-7d1f-4952-8bf1-4b924d7461d1",
    "Name": "Snowtown"
  },
  {
    "CountryCode": "AS",
    "Coordinates": {
      "Latitude": -28.05,
      "Longitude": 148.59,
      "Elevation": 198
    },
    "WarmingIndex": 0.97411156,
    "HeatingScore": 6,
    "Id": "e9581d86-1e15-42aa-ad4b-b3960a119b10",
    "Name": "St George"
  },
  {
    "CountryCode": "AS",
    "Coordinates": {
      "Latitude": -33.86,
      "Longitude": 151.21,
      "Elevation": 39
    },
    "WarmingIndex": 0.7162132,
    "HeatingScore": 4,
    "Id": "0788f2da-2034-40e2-badc-b77fc7d4bbd3",
    "Name": "Sydney"
  },
  {
    "CountryCode": "AS",
    "Coordinates": {
      "Latitude": -30.71,
      "Longitude": 134.58,
      "Elevation": 123
    },
    "WarmingIndex": 1.1263409,
    "HeatingScore": 7,
    "Id": "9882e6ca-a0aa-479c-b1a6-169e94481afd",
    "Name": "Tarcoola"
  },
  {
    "CountryCode": "NZ",
    "Coordinates": {
      "Latitude": -37.67068,
      "Longitude": 176.1966,
      "Elevation": 5
    },
    "WarmingIndex": 0.6376457,
    "HeatingScore": 4,
    "Id": "fc05dce1-79cd-4f0a-b84d-6b2919b8450a",
    "Name": "Tauranga Airport"
  },
  {
    "CountryCode": "AS",
    "Coordinates": {
      "Latitude": -19.64,
      "Longitude": 134.18,
      "Elevation": 375
    },
    "WarmingIndex": 1.0024529,
    "HeatingScore": 6,
    "Id": "5cfaf343-06a2-4bc6-a451-b8f2d3751da9",
    "Name": "Tennant Creek"
  },
  {
    "CountryCode": "AS",
    "Coordinates": {
      "Latitude": -29.44,
      "Longitude": 142.06,
      "Elevation": 176
    },
    "WarmingIndex": 0.80104065,
    "HeatingScore": 5,
    "Id": "04f7dd04-7bc2-4c4f-ae1e-2ee7180d8649",
    "Name": "Tibooburra"
  },
  {
    "CountryCode": "AS",
    "Coordinates": {
      "Latitude": -19.25,
      "Longitude": 146.77,
      "Elevation": 4
    },
    "WarmingIndex": 0.5267296,
    "HeatingScore": 3,
    "Id": "b0783cae-1c6f-4570-8ab3-19df57ee1820",
    "Name": "Townsville"
  },
  {
    "CountryCode": "AS",
    "Coordinates": {
      "Latitude": -35.16,
      "Longitude": 147.46,
      "Elevation": 212
    },
    "WarmingIndex": 0.7617836,
    "HeatingScore": 5,
    "Id": "d209e7e6-d3da-40d4-b377-61cf7056d376",
    "Name": "Wagga Wagga"
  },
  {
    "CountryCode": "AS",
    "Coordinates": {
      "Latitude": -30.04,
      "Longitude": 148.12,
      "Elevation": 133
    },
    "WarmingIndex": 1.1007977,
    "HeatingScore": 7,
    "Id": "82fbe1bf-5c58-4f9b-8f5d-71fdd060d2e9",
    "Name": "Walgett"
  },
  {
    "CountryCode": "AS",
    "Coordinates": {
      "Latitude": -32.67,
      "Longitude": 116.67,
      "Elevation": 275
    },
    "WarmingIndex": 1.0748596,
    "HeatingScore": 7,
    "Id": "81644c2e-0ddc-472f-bae6-d976e6d623bc",
    "Name": "Wandering"
  },
  {
    "CountryCode": "NZ",
    "Coordinates": {
      "Latitude": -41.28445,
      "Longitude": 174.76794,
      "Elevation": 125
    },
    "WarmingIndex": 0.400383,
    "HeatingScore": 2,
    "Id": "24c35f2d-a4a3-44e4-9a5e-6ea16cec8c9c",
    "Name": "Wellington"
  },
  {
    "CountryCode": "AS",
    "Coordinates": {
      "Latitude": -31.52,
      "Longitude": 143.39,
      "Elevation": 94
    },
    "WarmingIndex": 1.0187645,
    "HeatingScore": 6,
    "Id": "bd628d1f-9c2d-403c-abb5-e2e440fd3a02",
    "Name": "Wilcannia"
  },
  {
    "CountryCode": "AS",
    "Coordinates": {
      "Latitude": -32.79,
      "Longitude": 151.84,
      "Elevation": 7
    },
    "WarmingIndex": 0.65906715,
    "HeatingScore": 4,
    "Id": "f0f62231-f0d3-4ded-a945-133d4ecc4255",
    "Name": "Williamtown"
  },
  {
    "CountryCode": "AS",
    "Coordinates": {
      "Latitude": -16.29,
      "Longitude": 149.97,
      "Elevation": 8
    },
    "WarmingIndex": 0.14619827,
    "HeatingScore": 1,
    "Id": "9433c91f-acd9-4a8f-9bbd-31f0af2e8e42",
    "Name": "Willis Island"
  },
  {
    "CountryCode": "AS",
    "Coordinates": {
      "Latitude": -39.13,
      "Longitude": 146.42,
      "Elevation": 95
    },
    "WarmingIndex": 0.60373116,
    "HeatingScore": 4,
    "Id": "45feed6f-2821-43de-99ec-e605e3f36f75",
    "Name": "Wilsons Promontory"
  },
  {
    "CountryCode": "AS",
    "Coordinates": {
      "Latitude": -31.16,
      "Longitude": 136.81,
      "Elevation": 166
    },
    "WarmingIndex": 1.0261879,
    "HeatingScore": 6,
    "Id": "b41a2fa1-ce5c-473e-b2d7-17d43e9dbc8b",
    "Name": "Woomera"
  },
  {
    "CountryCode": "AS",
    "Coordinates": {
      "Latitude": -29.43,
      "Longitude": 153.36,
      "Elevation": 27
    },
    "WarmingIndex": 0.6131439,
    "HeatingScore": 4,
    "Id": "54e1d0a7-54be-4fb9-b88e-d6a4b8a1b595",
    "Name": "Yamba"
  }
]